id,ident,type,name,latitude_deg,longitude_deg,elevation_ft,continent,country_name,iso_country,region_name,iso_region,local_region,municipality,scheduled_service,gps_code,iata_code,local_code,home_link,wikipedia_link,keywords,score,last_updated
4762,MMUN,large_airport,"Aeropuerto Internacional de Cancún",21.039444,-86.874304,22,NA,Mexico,MX,"Quintana Roo",MX-ROO,ROO,"Ciudad de Cancún",1,MMUN,CUN,,http://www.asur.com.mx/asur/ingles/aeropuertos/cancun/cancun.asp,https://en.wikipedia.org/wiki/Canc%C3%BAn_International_Airport,,51150,2022-12-18T15:21:21+00:00
4731,MMMX,large_airport,"Aeropuerto Internacional Lic. Benito Juárez",19.435433,-99.082432,7316,NA,Mexico,MX,"Ciudad de México",MX-DIF,DIF,"Ciudad de México",1,MMMX,MEX,ME1,https://www.aicm.com.mx,https://en.wikipedia.org/wiki/Mexico_City_International_Airport,AICM,1025275,2022-12-18T11:26:51+00:00
4745,MMPR,large_airport,"Aeropuerto Internacional Lic. Gustavo Díaz Ordaz",20.679746,-105.246685,23,NA,Mexico,MX,Jalisco,MX-JAL,JAL,"Ciudad de Puerto Vallarta",1,MMPR,PVR,,http://vallarta.aeropuertosgap.com.mx/index.php?lang=eng,https://en.wikipedia.org/wiki/Lic._Gustavo_D%C3%ADaz_Ordaz_International_Airport,"Licenciado Gustavo Díaz Ordaz",1150,2022-12-18T13:32:23+00:00
4750,MMSD,large_airport,"Aeropuerto Internacional de Los Cabos",23.15642,-109.716811,374,NA,Mexico,MX,"Baja California Sur",MX-BCS,BCS,"Ciudad de San José del Cabo",1,MMSD,SJD,,http://loscabos.aeropuertosgap.com.mx/index.php?lang=eng,https://en.wikipedia.org/wiki/Los_Cabos_International_Airport,,1150,2022-12-18T15:24:06+00:00
4710,MMGL,large_airport,"Aeropuerto Internacional Miguel Hidalgo",20.52504,-103.301557,5016,NA,Mexico,MX,Jalisco,MX-JAL,JAL,"Ciudad de Tlajomulco de Zúñiga",1,MMGL,GDL,,,https://en.wikipedia.org/wiki/Don_Miguel_Hidalgo_y_Costilla_International_Airport,,1275,2022-12-18T13:34:18+00:00
4732,MMMY,large_airport,"Aeropuerto Internacional Gral. Mariano Escobedo",25.778561,-100.113602,1278,NA,Mexico,MX,"Nuevo León",MX-NLE,NLE,"Ciudad de Apodaca",1,MMMY,MTY,,,https://en.wikipedia.org/wiki/General_Mariano_Escobedo_International_Airport,,1000,2022-12-18T15:25:19+00:00
4726,MMMD,large_airport,"Aeropuerto Internacional Manuel Crescencio Rejón",20.933384,-89.662621,38,NA,Mexico,MX,Yucatán,MX-YUC,YUC,"Ciudad de Mérida",1,MMMD,MID,,,https://en.wikipedia.org/wiki/Manuel_Crescencio_Rej%C3%B3n_International_Airport,,1000,2022-12-18T12:26:54+00:00
4688,MMAA,large_airport,"Aeropuerto Internacional Juan N. Álvarez",16.762118,-99.755473,16,NA,Mexico,MX,Guerrero,MX-GRO,GRO,"Ciudad de Acapulco",1,MMAA,ACA,,,https://en.wikipedia.org/wiki/General_Juan_N._%C3%81lvarez_International_Airport,,1275,2022-12-18T12:32:49+00:00
4757,MMTJ,large_airport,"Aeropuerto Internacional Gral. Abelardo Rodriguez",32.545963,-116.975856,489,NA,Mexico,MX,"Baja California",MX-BCN,BCN,"Ciudad de Tijuana",1,MMTJ,TIJ,,http://aeropuertosgap.com.mx/english/airports/tijuana-airport,https://en.wikipedia.org/wiki/General_Abelardo_L._Rodr%C3%ADguez_International_Airport,,1150,2022-12-18T15:27:31+00:00
4733,MMMZ,large_airport,"Aeropuerto Internacional Gral. Rafael Buelna",23.166689,-106.270151,38,NA,Mexico,MX,Sinaloa,MX-SIN,SIN,"Ciudad de Mazatlàn",1,MMMZ,MZT,,,https://en.wikipedia.org/wiki/General_Rafael_Buelna_International_Airport,,1050,2022-12-18T15:28:50+00:00
4706,MMCZ,large_airport,"Aeropuerto Internacional de Cozumel",20.511425,-86.930287,15,NA,Mexico,MX,"Quintana Roo",MX-ROO,ROO,"Ciudad de Cozumel",1,MMCZ,CZM,,http://www.asur.com.mx/,https://en.wikipedia.org/wiki/Cozumel_International_Airport,,1000,2022-12-18T15:30:03+00:00
4722,MMLO,large_airport,"Aeropuerto Internacional Del Bajío",20.985813,-101.478825,5956,NA,Mexico,MX,Guanajuato,MX-GUA,GUA,"Ciudad de Silao",1,MMLO,BJX,BJ1,,https://en.wikipedia.org/wiki/Del_Baj%C3%ADo_International_Airport,,1000,2022-12-18T15:32:24+00:00
4713,MMHO,large_airport,"General Ignacio P. Garcia International Airport",29.095899581900003,-111.047996521,627,NA,Mexico,MX,Sonora,MX-SON,SON,Hermosillo,1,MMHO,HMO,,,https://en.wikipedia.org/wiki/General_Ignacio_Pesqueira_Garcia_International_Airport,,1000,2012-02-07T04:17:00+00:00
4764,MMVR,medium_airport,"General Heriberto Jara International Airport",19.1459007263,-96.1873016357,90,NA,Mexico,MX,Veracruz,MX-VER,VER,Veracruz,1,MMVR,VER,,http://www.asur.com.mx/asur/ingles/aeropuertos/veracruz/veracruz.asp,https://en.wikipedia.org/wiki/General_Heriberto_Jara_International_Airport,,750,2010-09-02T14:40:13+00:00
4723,MMLP,medium_airport,"Manuel Márquez de León International Airport",24.072700500499998,-110.361999512,69,NA,Mexico,MX,"Baja California Sur",MX-BCS,BCS,"La Paz",1,MMLP,LAP,,http://aeropuertosgap.com.mx/aeropuertos/lapaz?lang=eng,https://en.wikipedia.org/wiki/Manuel_M%C3%A1rquez_de_Le%C3%B3n_International_Airport,,750,2010-09-06T16:23:21+00:00
4724,MMLT,medium_airport,"Loreto International Airport",25.989200592041016,-111.3479995727539,34,NA,Mexico,MX,"Baja California Sur",MX-BCS,BCS,Loreto,1,MMLT,LTO,,,https://en.wikipedia.org/wiki/Loreto_International_Airport,,750,2008-08-19T09:21:43+00:00
4869,MMSL,medium_airport,"Cabo San Lucas International Airport",22.948211,-109.938155,459,NA,Mexico,MX,"Baja California Sur",MX-BCS,BCS,"Cabo San Lucas",1,MMSL,CSL,CSL,http://caboairport.caboconnections.com/,https://en.wikipedia.org/wiki/Cabo_San_Lucas_International_Airport,MM15,500,2023-07-09T16:35:43+00:00
4760,MMTO,large_airport,"Aeropuerto Internacional Adolfo López Mateos",19.338196,-99.570358,8466,NA,Mexico,MX,"México (state)",MX-MEX,MEX,"Ciudad de Toluca",1,MMTO,TLC,,,https://en.wikipedia.org/wiki/Lic._Adolfo_L%C3%B3pez_Mateos_International_Airport,,1000,2022-12-18T12:24:21+00:00
4736,MMOX,medium_airport,"Aeropuerto Internacional Xoxocotlán",16.999901,-96.726601,4989,NA,Mexico,MX,Oaxaca,MX-OAX,OAX,Oaxaca,1,MMOX,OAX,,http://www.asur.com.mx/asur/ingles/aeropuertos/oaxaca/oaxaca.asp,https://en.wikipedia.org/wiki/Xoxocotl%C3%A1n_International_Airport,,750,2023-11-01T15:24:48+00:00
4752,MMSP,medium_airport,"Ponciano Arriaga International Airport",22.254299163800003,-100.930999756,6035,NA,Mexico,MX,"San Luis Potosí",MX-SLP,SLP,"San Luis Potosí",1,MMSP,SLP,,,https://en.wikipedia.org/wiki/Ponciano_Arriaga_International_Airport,Estafeta,750,2013-07-04T18:30:15+00:00
4691,MMAS,medium_airport,"Aeropuerto Internacional Jesús Terán Peredo",21.699589,-102.318372,6112,NA,Mexico,MX,Aguascalientes,MX-AGU,AGU,Aguascalientes,1,MMAS,AGU,,https://www.aeropuertosgap.com.mx/es/aguascalientes.html,https://en.wikipedia.org/wiki/Lic._Jes%C3%BAs_Ter%C3%A1n_Peredo_International_Airport,"Aguascalientes International, Licenciado Jesús Terán Peredo",750,2023-11-06T12:47:23+00:00
4703,MMCU,medium_airport,"General Roberto Fierro Villalobos International Airport",28.702899932900003,-105.964996338,4462,NA,Mexico,MX,Chihuahua,MX-CHH,CHH,Chihuahua,1,MMCU,CUU,,,https://en.wikipedia.org/wiki/General_Roberto_Fierro_Villalobos_International_Airport,,750,2010-09-06T16:24:01+00:00
4766,MMZH,medium_airport,"Ixtapa Zihuatanejo International Airport",17.601601,-101.460999,26,NA,Mexico,MX,Guerrero,MX-GRO,GRO,Ixtapa,1,MMZH,ZIH,,,https://en.wikipedia.org/wiki/Ixtapa-Zihuatanejo_International_Airport,,750,2022-07-13T09:12:10+00:00
4727,MMML,medium_airport,"General Rodolfo Sánchez Taboada International Airport",32.6306,-115.241997,74,NA,Mexico,MX,"Baja California",MX-BCN,BCN,Mexicali,1,MMML,MXL,M1L,http://aeropuertosgap.com.mx/aeropuertos/mexicali?lang=eng,https://en.wikipedia.org/wiki/General_Rodolfo_S%C3%A1nchez_Taboada_International_Airport,"Mexicali Airport",750,2018-05-04T01:20:01+00:00
4747,MMQT,medium_airport,"Querétaro Intercontinental Airport",20.6173,-100.185997,6296,NA,Mexico,MX,Querétaro,MX-QUE,QUE,Querétaro,1,MMQT,QRO,QET,http://www.aiq.com.mx/,https://en.wikipedia.org/wiki/Quer%C3%A9taro_International_Airport,,750,2017-10-22T23:44:15+00:00
4763,MMVA,medium_airport,"Carlos Rovirosa Pérez International Airport",17.996999740600586,-92.81739807128906,46,NA,Mexico,MX,Tabasco,MX-TAB,TAB,Villahermosa,1,MMVA,VSA,,,https://en.wikipedia.org/wiki/Carlos_Rovirosa_P%C3%A9rez_International_Airport,"Villahermosa International Airport",750,2009-01-15T08:43:08+00:00
4699,MMCN,medium_airport,"Ciudad Obregón International Airport",27.39259910583496,-109.83300018310547,243,NA,Mexico,MX,Sonora,MX-SON,SON,"Ciudad Obregón",1,MMCN,CEN,,http://obregon.asa.gob.mx/wb/webasa/obregon_aeropuertos,https://en.wikipedia.org/wiki/Ciudad_Obreg%C3%B3n_International_Airport,,750,2009-01-15T07:55:41+00:00
4697,MMCL,medium_airport,"Bachigualato Federal International Airport",24.76504,-107.475228,108,NA,Mexico,MX,Sinaloa,MX-SIN,SIN,Culiacán,1,MMCL,CUL,,,https://en.wikipedia.org/wiki/Bachigualato_Federal_International_Airport,"Federal de Bachigualato International Airport, Culiacán International Airport",750,2021-11-21T15:34:21+00:00
4721,MMLM,medium_airport,"Valle del Fuerte International Airport",25.685447,-109.081055,16,NA,Mexico,MX,Sinaloa,MX-SIN,SIN,"Los Mochis",1,MMLM,LMM,,http://aeropuertosgap.com.mx/english/index-site.html,https://en.wikipedia.org/wiki/Federal_del_Valle_del_Fuerte_International_Airport,,750,2021-11-20T16:00:55+00:00
4768,MMZO,medium_airport,"Playa De Oro International Airport",19.1448,-104.558998,30,NA,Mexico,MX,Colima,MX-COL,COL,Manzanillo,1,MMZO,ZLO,,http://manzanillo.aeropuertosgap.com.mx/index.php?lang=eng,https://en.wikipedia.org/wiki/Playa_de_Oro_International_Airport,"Manzanillo Costalegre",750,2021-10-12T17:48:18+00:00
4765,MMZC,medium_airport,"Aeropuerto Internacional General Leobardo C. Ruiz",22.8971,-102.686996,7141,NA,Mexico,MX,Zacatecas,MX-ZAC,ZAC,Zacatecas,1,MMZC,ZCL,,http://www.oma.aero/es/aeropuertos/zacatecas/,https://en.wikipedia.org/wiki/General_Leobardo_C._Ruiz_International_Airport,"Zacatecas International Airport",750,2023-11-06T12:13:30+00:00
4751,MMSF,small_airport,"San Felipe International Airport",30.929912,-114.808388,148,NA,Mexico,MX,"Baja California",MX-BCN,BCN,Mexicali,0,MMSF,SFH,SFE,,https://en.wikipedia.org/wiki/San_Felipe_International_Airport,,50,2021-10-13T13:56:09+00:00
4711,MMGM,medium_airport,"General José María Yáñez International Airport",27.9689998626709,-110.92500305175781,59,NA,Mexico,MX,Sonora,MX-SON,SON,Guaymas,1,MMGM,GYM,,http://guaymas.asa.gob.mx/wb/webasa/guaymas_aeropuertos,https://en.wikipedia.org/wiki/General_Jos%C3%A9_Mar%C3%ADa_Y%C3%A1%C3%B1ez_International_Airport,,750,2009-01-15T07:58:10+00:00
4692,MMBT,medium_airport,"Aeropuerto Internacional de Bahías de Huatulco",15.775611,-96.26079,464,NA,Mexico,MX,Oaxaca,MX-OAX,OAX,Huatulco,1,MMBT,HUX,HU1,,https://en.wikipedia.org/wiki/Bah%C3%ADas_de_Huatulco_International_Airport,,750,2023-11-01T15:24:13+00:00
4738,MMPB,medium_airport,"Hermanos Serdán International Airport",19.1581001282,-98.3713989258,7361,NA,Mexico,MX,Puebla,MX-PUE,PUE,Puebla,1,MMPB,PBC,,http://www.aeropuertopuebla.com/,https://en.wikipedia.org/wiki/Hermanos_Serd%C3%A1n_International_Airport,,750,2010-09-02T14:41:48+00:00
31967,MMMG,small_airport,"Mulege Airport",26.905347,-111.970725,66,NA,Mexico,MX,"Baja California Sur",MX-BCS,BCS,Mulege,0,MMMG,MUG,,,https://en.wikipedia.org/wiki/Muleg%C3%A9_Airstrip,,50,2017-10-20T07:19:34+00:00
4701,MMCS,medium_airport,"Abraham González International Airport",31.63610076904297,-106.42900085449219,3904,NA,Mexico,MX,Chihuahua,MX-CHH,CHH,"Ciudad Juárez",1,MMCS,CJS,,,https://en.wikipedia.org/wiki/Abraham_Gonz%C3%A1lez_International_Airport,,750,2009-01-15T08:14:01+00:00
4758,MMTM,medium_airport,"General Francisco Javier Mina International Airport",22.2964000702,-97.8658981323,80,NA,Mexico,MX,Tamaulipas,MX-TAM,TAM,Tampico,1,MMTM,TAM,,,https://en.wikipedia.org/wiki/General_Francisco_Javier_Mina_International_Airport,,750,2010-09-02T14:39:22+00:00
4755,MMTC,medium_airport,"Francisco Sarabia Tinoco International Airport",25.5683,-103.411003,3688,NA,Mexico,MX,Coahuila,MX-COA,COA,Torreón,1,MMTC,TRC,,,https://en.wikipedia.org/wiki/Francisco_Sarabia_International_Airport,,750,2022-03-18T16:03:42+00:00
4702,MMCT,medium_airport,"Aeropuerto Internacional de Chichen Itza",20.6413,-88.446198,102,NA,Mexico,MX,Yucatán,MX-YUC,YUC,"Chichen Itza",0,MMCT,CZA,,http://www.chichen-itza-airport.com/,https://en.wikipedia.org/wiki/Chichen_Itza_International_Airport,,250,2023-11-01T15:42:46+00:00
4728,MMMM,medium_airport,"General Francisco J. Mujica International Airport",19.849899,-101.025002,6033,NA,Mexico,MX,Michoacán,MX-MIC,MIC,Morelia,1,MMMM,MLM,,,https://en.wikipedia.org/wiki/General_Francisco_J._Mujica_International_Airport,,750,2021-10-12T17:56:59+00:00
4746,MMPS,medium_airport,"Aeropuerto Internacional de Puerto Escondido",15.8769,-97.089103,294,NA,Mexico,MX,Oaxaca,MX-OAX,OAX,"Puerto Escondido",1,MMPS,PXM,P1M,,https://en.wikipedia.org/wiki/Puerto_Escondido_International_Airport,,750,2023-11-01T15:25:25+00:00
4761,MMTP,medium_airport,"Tapachula International Airport",14.7943000793,-92.3700027466,97,NA,Mexico,MX,Chiapas,MX-CHP,CHP,Tapachula,1,MMTP,TAP,,http://www.asur.com.mx/asur/Ingles/aeropuertos/tapachula/tapachula.asp,https://en.wikipedia.org/wiki/Tapachula_International_Airport,,750,2010-09-06T17:24:28+00:00
4709,MMES,small_airport,"Ensenada International Airport / El Cipres Air Base",31.7953,-116.602997,66,NA,Mexico,MX,"Baja California",MX-BCN,BCN,Ensenada,1,MMES,ESE,ENS,,https://en.wikipedia.org/wiki/Ensenada_Airport,"""El Ciprés"" Military Airbase Number 3",100,2020-10-06T14:08:48+00:00
4729,MMMT,medium_airport,"Minatitlán/Coatzacoalcos International Airport",18.103399,-94.580704,36,NA,Mexico,MX,Veracruz,MX-VER,VER,Cosoleacaque,1,MMMT,MTT,,http://www.asur.com.mx/asur/ingles/aeropuertos/minatitlan/minatitlan.asp,https://en.wikipedia.org/wiki/Minatitl%C3%A1n/Coatzacoalcos_International_Airport,,750,2022-08-31T12:55:59+00:00
4716,MMIO,medium_airport,"Plan De Guadalupe International Airport",25.54949951171875,-100.92900085449219,4778,NA,Mexico,MX,Coahuila,MX-COA,COA,Saltillo,1,MMIO,SLW,,,https://en.wikipedia.org/wiki/Plan_de_Guadalupe_International_Airport,,750,2009-07-09T22:39:19+00:00
4740,MMPE,closed,"Aeródromo de Puerto Peñasco",31.352721,-113.518767,30,NA,Mexico,MX,Sonora,MX-SON,SON,"Puerto Peñasco",0,,,,,,"PPE, MMPE",50,2022-12-18T15:33:50+00:00
4748,MMRX,medium_airport,"General Lucio Blanco International Airport",26.0089,-98.2285,139,NA,Mexico,MX,Tamaulipas,MX-TAM,TAM,Reynosa,1,MMRX,REX,REI,,https://en.wikipedia.org/wiki/General_Lucio_Blanco_International_Airport,,750,2017-10-22T23:48:12+00:00
4690,MMAN,medium_airport,"Del Norte International Airport",25.865601,-100.237,1476,NA,Mexico,MX,"Nuevo León",MX-NLE,NLE,Monterrey,0,MMAN,NTR,ADN,,https://en.wikipedia.org/wiki/Del_Norte_International_Airport,"BAM 14 Monterrey/Apodaca",250,2021-10-07T11:07:07+00:00
4707,MMDO,large_airport,"Aeropuerto Internacional Gral, Guadalupe Victoria",24.125908,-104.533904,6104,NA,Mexico,MX,Durango,MX-DUR,DUR,"Ciudad de Durango",1,MMDO,DGO,,,https://en.wikipedia.org/wiki/General_Guadalupe_Victoria_International_Airport,,1000,2022-12-18T15:55:15+00:00
4725,MMMA,medium_airport,"General Servando Canales International Airport",25.7698993683,-97.5252990723,25,NA,Mexico,MX,Tamaulipas,MX-TAM,TAM,Matamoros,1,MMMA,MAM,,,https://en.wikipedia.org/wiki/General_Servando_Canales_International_Airport,,750,2010-09-06T17:13:57+00:00
43048,MMTG,medium_airport,"Angel Albino Corzo International Airport",16.5636005402,-93.02249908450001,1499,NA,Mexico,MX,Chiapas,MX-CHP,CHP,"Tuxtla Gutiérrez",1,MMTG,TGZ,TGZ,http://www.chiapas.aero/index.html,https://en.wikipedia.org/wiki/Angel_Albino_Corzo_International_Airport,,550,2014-02-18T20:34:43+00:00
32690,MX-XAL,small_airport,"Álamos Airport",27.039,-108.949021,1312,NA,Mexico,MX,Sonora,MX-SON,SON,Álamos,0,,XAL,ALA,,,MM45,50,2023-08-19T00:20:32+00:00
4918,MM79,small_airport,"El Fuerte Airport",26.398199,-108.612,246,NA,Mexico,MX,Sinaloa,MX-SIN,SIN,"El Fuerte",0,MM79,,FTE,,,,50,2021-01-20T11:38:57+00:00
4743,MMPP,small_airport,"Punta Pescadero Airport",23.803329,-109.707348,33,NA,Mexico,MX,"Baja California Sur",MX-BCS,BCS,"La Paz",0,MMPP,,PPC,,https://en.wikipedia.org/wiki/Punta_Pescadero_Airstrip,,50,2021-10-15T17:39:48+00:00
32149,MX-PCV,small_airport,"Punta Chivato Airport",27.069201,-111.961998,49,NA,Mexico,MX,"Baja California Sur",MX-BCS,BCS,Mulegé,0,,PCV,PCH,,https://en.wikipedia.org/wiki/Punta_Chivato_Airstrip,,50,2020-12-28T14:05:02+00:00
4704,MMCV,medium_airport,"General Pedro Jose Mendez International Airport",23.7033004761,-98.9564971924,761,NA,Mexico,MX,Tamaulipas,MX-TAM,TAM,"Ciudad Victoria",1,MMCV,CVM,,,https://en.wikipedia.org/wiki/General_Pedro_J._M%C3%A9ndez_International_Airport,,750,2010-09-06T16:24:56+00:00
4737,MMPA,medium_airport,"El Tajín National Airport",20.6026992798,-97.46080017090001,497,NA,Mexico,MX,Veracruz,MX-VER,VER,"Poza Rica",1,MMPA,PAZ,,,https://en.wikipedia.org/wiki/El_Taj%C3%ADn_National_Airport,,750,2010-09-06T17:23:40+00:00
4693,MMCB,medium_airport,"Cuernavaca - General Mariano Matamoros Airport",18.834801,-99.261299,4277,NA,Mexico,MX,Morelos,MX-MOR,MOR,Temixco,1,MMCB,CVJ,,,https://en.wikipedia.org/wiki/General_Mariano_Matamoros_Airport,,750,2021-10-12T17:51:24+00:00
4708,MMEP,medium_airport,"Amado Nervo National Airport",21.419833,-104.842472,3020,NA,Mexico,MX,Nayarit,MX-NAY,NAY,Tepic,1,MMEP,TPQ,TNY,http://tepic.asa.gob.mx/wb/webasa/tepic_aeropuertos,https://en.wikipedia.org/wiki/Amado_Nervo_National_Airport,"Tepic Airport",750,2022-12-03T17:20:15+00:00
31554,MMGR,small_airport,"Guerrero Negro Airport",28.0261,-114.024002,59,NA,Mexico,MX,"Baja California",MX-BCN,BCN,"San Quintín",1,MMGR,GUB,GRN,,https://en.wikipedia.org/wiki/Guerrero_Negro_Airport,MM58,150,2022-11-01T13:11:53+00:00
32148,MX-PCM,small_airport,"Aeropuerto Nacional de Playa del Carmen",20.622499,-87.082199,20,NA,Mexico,MX,"Quintana Roo",MX-ROO,ROO,Solidaridad,0,,PCM,PCE,,https://es.wikipedia.org/wiki/Aeropuerto_Nacional_de_Playa_del_Carmen,,50,2023-11-04T00:07:36+00:00
4700,MMCP,medium_airport,"Ingeniero Alberto Acuña Ongay International Airport",19.816799163800003,-90.5002975464,34,NA,Mexico,MX,Campeche,MX-CAM,CAM,Campeche,1,MMCP,CPE,,,https://en.wikipedia.org/wiki/Ing._Alberto_Acu%C3%B1a_Ongay_International_Airport,,750,2010-09-06T17:14:55+00:00
4694,MMCE,medium_airport,"Ciudad del Carmen International Airport",18.65369987487793,-91.79900360107422,10,NA,Mexico,MX,Campeche,MX-CAM,CAM,"Ciudad del Carmen",1,MMCE,CME,,,https://en.wikipedia.org/wiki/Ciudad_del_Carmen_International_Airport,,750,2009-01-15T08:50:10+00:00
4714,MMIA,medium_airport,"Licenciado Miguel de la Madrid Airport",19.277,-103.577002,2467,NA,Mexico,MX,Colima,MX-COL,COL,Colima,1,MMIA,CLQ,COL,,https://en.wikipedia.org/wiki/Lic._Miguel_de_la_Madrid_Airport,"Lic. Miguel de la Madrid Airport, Colima Airport",750,2017-10-22T23:17:51+00:00
4718,MMJA,medium_airport,"El Lencero Airport",19.4750995636,-96.7975006104,3127,NA,Mexico,MX,Veracruz,MX-VER,VER,Xalapa,1,MMJA,JAL,,,https://en.wikipedia.org/wiki/El_Lencero_Airport,,750,2010-09-06T17:18:59+00:00
30860,MMDA,medium_airport,"Ciudad Constitución National Airport",25.053801,-111.614998,213,NA,Mexico,MX,"Baja California Sur",MX-BCS,BCS,Comondú,1,MMDA,CUA,CCB,,https://en.wikipedia.org/wiki/Ciudad_Constituci%C3%B3n_Airport,"MM71, Cap. Jaime Emilio Real Cossio",550,2021-04-18T21:44:11+00:00
30705,BHL,small_airport,"Bahía de los Ángeles Airport",28.9786,-113.560997,34,NA,Mexico,MX,"Baja California",MX-BCN,BCN,Ensenada,0,,BHL,BAX,,https://en.wikipedia.org/wiki/Bah%C3%ADa_de_los_%C3%81ngeles_Airport,,50,2020-12-28T16:12:46+00:00
4739,MMPC,small_airport,"Aeropuerto Nacional Ingeniero Juan Guillermo Villasana",20.0774,-98.782501,7600,NA,Mexico,MX,Hidalgo,MX-HID,HID,Pachuca,0,MMPC,,PCA,,,,50,2023-11-01T15:40:12+00:00
29924,MMGT,small_airport,"Rancho Medio Sitio Airport",20.905435,-101.342151,6152,NA,Mexico,MX,Guanajuato,MX-GUA,GUA,Silao,0,MMGT,,MTO,,,,50,2022-12-03T18:32:57+00:00
4730,MMMV,medium_airport,"Monclova International Airport",26.9557,-101.470001,1864,NA,Mexico,MX,Coahuila,MX-COA,COA,,1,MMMV,LOV,MOV,,https://en.wikipedia.org/wiki/Venustiano_Carranza_International_Airport,,750,2017-10-22T23:32:37+00:00
4698,MMCM,medium_airport,"Aeropuerto Internacional de Chetumal",18.5047,-88.326797,39,NA,Mexico,MX,"Quintana Roo",MX-ROO,ROO,Chetumal,1,MMCM,CTM,,http://chetumal.asa.gob.mx/wb/webasa/chetumal_aeropuertos,https://en.wikipedia.org/wiki/Chetumal_International_Airport,,750,2023-11-04T00:08:31+00:00
4735,MMNL,medium_airport,"Quetzalcóatl International Airport",27.443899,-99.570503,484,NA,Mexico,MX,Tamaulipas,MX-TAM,TAM,"Nuevo Laredo",1,MMNL,NLD,,,https://en.wikipedia.org/wiki/Quetzalc%C3%B3atl_International_Airport,,750,2021-11-03T14:58:09+00:00
4741,MMPG,medium_airport,"Piedras Negras International Airport",28.627873,-100.53524,901,NA,Mexico,MX,Coahuila,MX-COA,COA,"Piedras Negras",1,MMPG,PDS,PNG,,https://en.wikipedia.org/wiki/Piedras_Negras_International_Airport,,750,2022-10-26T16:11:25+00:00
4719,MMJC,small_airport,"Aeropuerto Nacional Jorge Jiménez Cantú",19.574155,-99.291183,8120,NA,Mexico,MX,"México (state)",MX-MEX,MEX,"Atizapán de Zaragoza",0,MMJC,AZP,JJC,,https://es.wikipedia.org/wiki/Aeropuerto_Nacional_Jorge_Jiménez_Cantú,"Jorge Jiménez Cantú",50,2022-12-18T12:22:22+00:00
43104,MX-0008,small_airport,"Bahía de Kino Airport",28.8601,-111.976997,30,NA,Mexico,MX,Sonora,MX-SON,SON,Hermosillo,0,,,BHK,,,,50,2020-12-28T16:51:23+00:00
46096,MX-0004,small_airport,"Alfonsinas Airstrip",29.806009,-114.396633,6,NA,Mexico,MX,"Baja California",MX-BCN,BCN,"San Felipe",0,,,ASN,,https://en.wikipedia.org/wiki/Alfonsina%27s_Airstrip,,50,2022-10-29T18:11:03+00:00
46097,MX-0005,small_airport,"Villas Mar de Cortez Airport",29.793059,-114.401836,21,NA,Mexico,MX,"Baja California",MX-BCN,BCN,"San Felipe",0,,,VMC,,https://en.wikipedia.org/wiki/Rancho_Grande_Airstrip,"Rancho Grande, MMRG",50,2022-10-29T18:10:42+00:00
46098,MX-0006,small_airport,"Punta San Francisquito Airstrip",28.412616,-112.859588,20,NA,Mexico,MX,"Baja California",MX-BCN,BCN,"San Quintín",0,,,PSF,,https://en.wikipedia.org/wiki/Punta_San_Francisquito_Airfield,,50,2022-11-01T13:12:45+00:00
31923,MMSM,large_airport,"Aeropuerto Internacional General Felipe Ángeles",19.7357,-99.0257,7369,NA,Mexico,MX,"México (state)",MX-MEX,MEX,"Mexico City",1,MMSM,NLU,SLM,https://www.gob.mx/nuevoaeropuertofelipeangeles,https://en.wikipedia.org/wiki/Mexico_City_Santa_Lucía_Airport,"Santa Lucia AFB, Mexico City Santa Lucía Airport, Zumpango",1000,2023-11-06T10:47:43+00:00
4705,MMCY,medium_airport,"Captain Rogelio Castillo National Airport",20.546,-100.887001,5709,NA,Mexico,MX,Guanajuato,MX-GUA,GUA,Celaya,1,MMCY,CYW,CYA,,https://en.wikipedia.org/wiki/Captain_Rogelio_Castillo_National_Airport,,550,2016-08-26T10:20:52+00:00
4734,MMNG,small_airport,"Nogales International Airport",31.225756,-110.976934,3990,NA,Mexico,MX,Sonora,MX-SON,SON,Nogales,1,MMNG,NOG,,,https://en.wikipedia.org/wiki/Nogales_International_Airport_(Mexico),,100,2020-10-06T14:11:10+00:00
4888,MM41,small_airport,"Base Nº7 de la Fuerza Aérea Mexicana",16.907322,-99.98286,20,NA,Mexico,MX,Guerrero,MX-GRO,GRO,"Ciudad de Acapulco",0,MM41,,TRC,https://www.gob.mx/sedena/documentos/fuerza-aerea-mexicana,https://es.wikipedia.org/wiki/Base_A%C3%A9rea_Militar_n.%C2%BA_7,"MM1I, La Base Aérea n.º 7",50,2022-12-18T13:30:20+00:00
313719,MX-0039,small_airport,"Puerto Adolfo López Mateos Airstrip",25.19709,-112.11385,6,NA,Mexico,MX,"Baja California Sur",MX-BCS,BCS,Comondú,0,,,MTB,,https://en.wikipedia.org/wiki/Puerto_Adolfo_L%C3%B3pez_Mateos_Airstrip,"Matancitas Airport",50,2015-08-24T23:20:04+00:00
4864,MM10,small_airport,"Isla Cedros Airport",28.0376,-115.190001,98,NA,Mexico,MX,"Baja California",MX-BCN,BCN,Ensenada,0,MMCD,,ICD,,https://en.wikipedia.org/wiki/Isla_de_Cedros_Airport,MM10,50,2020-12-28T16:12:18+00:00
4909,MM67,small_airport,"Ingeniero Manuel Moreno Torres  Airport",23.6766,-100.623001,5118,NA,Mexico,MX,"San Luis Potosí",MX-SLP,SLP,Matehuala,0,MM67,,MTH,,https://es.wikipedia.org/wiki/Aeropuerto_Nacional_Ingeniero_Manuel_Moreno_Torres,MX73,50,2016-07-09T13:53:02+00:00
46099,MX-0007,small_airport,"Rancho San Cristobal Airstrip",26.851259,-113.140211,9,NA,Mexico,MX,"Baja California Sur",MX-BCS,BCS,Mulegé,0,,,RCX,http://www.aridabajahotel.com.mx/english/airstrip/,https://en.wikipedia.org/wiki/Laguna_San_Ignacio_Airstrip,"Laguna San Ignacio",50,2017-10-22T12:33:42+00:00
4875,MM23,small_airport,"Rancho Santa Ynés Airport",29.726614,-114.699997,1865,NA,Mexico,MX,"Baja California",MX-BCN,BCN,"San Quintín",0,,,SIN,,https://en.wikipedia.org/wiki/Rancho_Santa_Inés_Airstrip,MM23,50,2022-11-01T13:04:52+00:00
4866,MM12,small_airport,"Bacubirito Airport",25.815701,-107.907997,591,NA,Mexico,MX,Sinaloa,MX-SIN,SIN,"Sinaloa de Leyva",0,MM12,,BCU,,,,50,2021-11-01T11:47:25+00:00
32483,MX-TUY,small_airport,"Base Aeronaval de Tulum",20.227301,-87.438203,7,NA,Mexico,MX,"Quintana Roo",MX-ROO,ROO,Tulum,0,MMTU,TUY,TUY,,https://sv.wikipedia.org/wiki/Tulum_Naval_Air_Station,MM49,50,2023-11-04T00:11:54+00:00
4742,MMPN,medium_airport,"Uruapan - Licenciado y General Ignacio Lopez Rayon International Airport",19.3967,-102.039001,5258,NA,Mexico,MX,Michoacán,MX-MIC,MIC,Uruapan,1,MMPN,UPN,,,https://en.wikipedia.org/wiki/Uruapan_International_Airport,,750,2021-10-12T17:56:05+00:00
4717,MMIT,medium_airport,"Aeropuerto Nacional Militar de Ixtepec (Base Aérea Militar N° 2 de Ixtepec ""General Antonio Cárdenas Rodríguez"")",16.449301,-95.093697,164,NA,Mexico,MX,Oaxaca,MX-OAX,OAX,Ixtepec,1,MMIT,IZT,,,https://en.wikipedia.org/wiki/Ixtepec_Airport,,500,2023-11-01T15:27:27+00:00
4754,MMTB,medium_airport,"Terán Air Base",16.739901,-93.173301,1909,NA,Mexico,MX,Chiapas,MX-CHP,CHP,"Tuxtla Gutiérrez",0,MMTB,,TGM,,http://es.wikipedia.org/wiki/Base_A%C3%A9rea_No._6_Ter%C3%A1n,"Angel Albino Corzo Airport",250,2017-05-06T09:26:05+00:00
514408,MX-2118,medium_airport,"Aeropuerto Nacional Militar ""General Alfredo Lezama Álvarez"" (Base N°1 de la Fuerza Aérea Mexicana)",19.735682,-99.002455,7365,NA,Mexico,MX,"México (state)",MX-MEX,MEX,Zumpango,0,,,NLU,https://www.gob.mx/sedena/documentos/fuerza-aerea-mexicana,https://es.wikipedia.org/wiki/Base_Aérea_Militar_N.º_1_de_Santa_Lucía,,250,2023-11-06T12:34:03+00:00
32274,MX-SCX,small_airport,"Estación Aeronaval de Salina Cruz",16.212601,-95.201599,75,NA,Mexico,MX,Oaxaca,MX-OAX,OAX,"Salina Cruz",1,MMSZ,SCX,MM57,,https://en.wikipedia.org/wiki/Salina_Cruz_Airport,,150,2023-11-01T15:28:10+00:00
4756,X-MMTG,small_airport,"Francisco Sarabia National Airport",16.769699,-93.341499,3451,NA,Mexico,MX,Chiapas,MX-CHP,CHP,"Tuxtla Gutiérrez",0,,,,,https://en.wikipedia.org/wiki/Francisco_Sarabia_National_Airport,"MMTG, TGZ",150,2016-07-22T21:57:59+00:00
4744,MMPQ,small_airport,"Palenque International Airport",17.533153,-92.015484,200,NA,Mexico,MX,Chiapas,MX-CHP,CHP,Palenque,1,MMPQ,PQM,,,https://en.wikipedia.org/wiki/Palenque_International_Airport,,100,2021-10-13T10:20:12+00:00
45229,AMC,small_airport,"Mar de Cortés International Airport",31.351987,-113.305177,71,NA,Mexico,MX,Sonora,MX-SON,SON,"Puerto Peñasco",1,MMPE,PPE,AMC,https://www.aeropuertomardecortes.com/,https://en.wikipedia.org/wiki/Mar_de_Cort%C3%A9s_International_Airport,,100,2023-07-10T15:31:12+00:00
4908,MM66,small_airport,"Coahuayana Airport",18.684601,-103.676003,200,NA,Mexico,MX,Michoacán,MX-MIC,MIC,,0,,,CHY,,,MM66,50,2017-10-15T23:15:33+00:00
4712,MMHC,small_airport,"Tehuacan Airport",18.49720001220703,-97.4198989868164,5509,NA,Mexico,MX,Puebla,MX-PUE,PUE,,0,MMHC,TCN,,,,,50,2008-06-13T14:30:04+00:00
4753,MMTA,small_airport,"Aeropuerto Nacional Militar de Atlangatepec (Estación Aérea Militar No. 9)",19.537992,-98.173492,8229,NA,Mexico,MX,Tlaxcala,MX-TLA,TLA,,0,MMTA,,,,https://es.wikipedia.org/wiki/Estaci%C3%B3n_a%C3%A9rea_n.%C2%B0_9_Atlangatepec,"Estación aérea n.° 9 Atlangatepec",50,2023-11-01T15:38:42+00:00
4898,MM53,small_airport,"Nuevo Dolores Airport",24.06114,-98.415999,480,NA,Mexico,MX,Tamaulipas,MX-TAM,TAM,Abasolo,0,MM53,,MM53,,,,50,2023-05-22T14:32:12+00:00
4915,MM75,small_airport,"Agua Prieta Southwest Airport",31.242901,-109.625,4000,NA,Mexico,MX,Sonora,MX-SON,SON,"Agua Prieta",0,MM75,,MM75,,,,50,2020-09-23T11:27:14+00:00
328266,MX-0718,small_airport,"La Nueva Gloria Airport",22.692388,-98.227722,131,NA,Mexico,MX,Tamaulipas,MX-TAM,TAM,Aldama,0,,,LNG,,,,50,2018-06-09T15:11:13+00:00
329187,MX-0846,small_airport,"Zapotal Airport",22.744449,-98.035494,95,NA,Mexico,MX,Tamaulipas,MX-TAM,TAM,Aldama,0,,,ZAT,,,,50,2018-09-03T19:33:21+00:00
321650,MX-0333,small_airport,"Vista Alegre Airport",22.549127,-98.057853,174,NA,Mexico,MX,Tamaulipas,MX-TAM,TAM,Altamira,0,,,VAE,,,,50,2016-12-30T12:15:51+00:00
321672,MX-0341,small_airport,"Valle de Banderas Airport",20.808405,-105.255848,250,NA,Mexico,MX,Nayarit,MX-NAY,NAY,"Bahia de Banderas",0,,,VBS,,,"Ejidal Airstrip",50,2019-01-20T11:17:49+00:00
43044,MX-CEO,small_airport,"El Crucero Airport",27.407301,-109.928001,114,NA,Mexico,MX,Sonora,MX-SON,SON,Cajeme,0,,,CEO,,,,50,2020-12-28T17:09:46+00:00
319059,MX-0182,small_airport,"Xpujil Airport",18.51111,-89.40226,850,NA,Mexico,MX,Campeche,MX-CAM,CAM,Calakmul,0,,,XJL,,,,50,2016-06-24T00:21:19+00:00
319317,MX-0189,small_airport,"La Colonia Airport",19.616961,-104.450942,1080,NA,Mexico,MX,Jalisco,MX-JAL,JAL,"Casimiro Castillo",0,,,CLD,,,,50,2016-07-03T15:57:19+00:00
325217,MX-0590,small_airport,"Cerro Azul Airport",21.156879,-97.756401,463,NA,Mexico,MX,Veracruz,MX-VER,VER,"Cerro Azul",0,,,,,,,50,2017-10-15T20:57:29+00:00
4696,MMCH,small_airport,"Chilpancingo Airport",17.574239,-99.515424,4199,NA,Mexico,MX,Guerrero,MX-GRO,GRO,Chilpancingo,0,MMCH,,CHG,,https://es.wikipedia.org/wiki/Aeropuerto_Nacional_de_Chilpancingo,,50,2018-05-04T02:13:03+00:00
317470,MX-0127,small_airport,"Potrerillos Airstrip",25.7972,-99.2511,463,NA,Mexico,MX,"Nuevo León",MX-NLE,NLE,China,0,,,PLL,,,,50,2016-04-07T23:50:44+00:00
4769,MMZP,small_airport,"Base Nº5 de la Fuerza Aérea Mexicana",20.753925,-103.463767,5333,NA,Mexico,MX,Jalisco,MX-JAL,JAL,"Ciudad de Zapopan",0,MMZP,,ZAP,,,,50,2022-12-18T13:35:44+00:00
4876,MM25,small_airport,"Capitán Piloto Aviador José Covarrubias Pérez Airport",19.7085,-103.489998,4987,NA,Mexico,MX,Jalisco,MX-JAL,JAL,"Ciudad Guzman",0,,,CGZ,,,"MM25, MX24",50,2016-07-03T18:42:36+00:00
328883,MX-0811,small_airport,"Rancho San Antonio Airport",22.694135,-99.024222,292,NA,Mexico,MX,Tamaulipas,MX-TAM,TAM,"Ciudad Mante",0,,,RAM,,,,50,2018-07-28T15:28:15+00:00
300563,MX-0012,small_airport,"El Llano Airport",21.0753,-105.2264,27,NA,Mexico,MX,Nayarit,MX-NAY,NAY,Compostela,0,,,LLF,,,,50,2015-08-23T16:54:06+00:00
319467,MX-0234,small_airport,"Aeródromo Capitán Eduardo A. Toledo",20.42323,-86.99633,35,NA,Mexico,MX,"Quintana Roo",MX-ROO,ROO,Cozumel,0,,,CET,,https://translate.google.com/translate?hl=en&sl=es&u=https://es.wikipedia.org/wiki/Aer%25C3%25B3dromo_Capit%25C3%25A1n_Eduardo_T,,50,2023-11-04T00:09:28+00:00
4880,MM29,small_airport,"Ta Lo De Soto Airport",16.463499,-98.393006,220,NA,Mexico,MX,Guerrero,MX-GRO,GRO,Cuajinicuilapa,0,MM29,,CJP,,https://es.wikipedia.org/wiki/Aeropuerto_Nacional_de_Cuajinicuilapa,,50,2016-07-22T12:46:52+00:00
319403,MX-0224,small_airport,"Nuevo Temalacaco Airport",22.287539,-98.613067,236,NA,Mexico,MX,"San Luis Potosí",MX-SLP,SLP,Ebano,0,,,NTC,,,MX34,50,2016-07-09T13:44:25+00:00
318685,MMGD,small_airport,"Isla Guadalupe Airport",29.02287,-118.273417,,NA,Mexico,MX,"Baja California",MX-BCN,BCN,"Ensenada (Isla Guadalupe)",0,MMGD,,,,,,50,2022-03-18T16:05:48+00:00
319477,MX-0236,small_airport,"Aeródromo “Felipe Carrillo Puerto”",19.61013,-88.074291,60,NA,Mexico,MX,"Quintana Roo",MX-ROO,ROO,"Felipe Carrillo Puerto",0,,,FCQ,,,"MM55, MM1V",50,2023-11-04T00:10:13+00:00
329561,MX-0907,small_airport,"Rancho El Gato Airport",25.86925,-98.607333,377,NA,Mexico,MX,"Nuevo León",MX-NLE,NLE,"General Bravo",0,,,TAG,,,,50,2018-10-27T10:23:07+00:00
323449,MX-0449,small_airport,"Cap. P.A. Roberto Chavez Balderas Airport",25.300041,-99.721716,1050,NA,Mexico,MX,"Nuevo León",MX-NLE,NLE,"General Teran",0,,,PAR,,,,50,2017-05-25T19:04:18+00:00
318898,MX-0164,small_airport,"Aero Fumigaciones David Airport",22.66174,-98.44989,160,NA,Mexico,MX,Tamaulipas,MX-TAM,TAM,Gonzalez,0,,,AFD,,,,50,2016-06-18T21:09:07+00:00
316533,MX-0089,small_airport,"Aeródromo de la Hacienda Panoaya",19.143465,-98.767605,8130,NA,Mexico,MX,"México (state)",MX-MEX,MEX,"Hacienda Panoaya",0,,,PNY,,,,50,2022-12-18T11:19:36+00:00
338161,MX-1445,small_airport,"Tiburón Aerodrome",29.01713,-112.20032,,NA,Mexico,MX,Sonora,MX-SON,SON,Hermosillo,0,,,,,,,50,2020-12-28T16:49:06+00:00
318943,MX-0171,small_airport,"Aeródromo Holbox",21.518237,-87.383596,,NA,Mexico,MX,"Quintana Roo",MX-ROO,ROO,Holbox,0,,,HOL,,,,50,2023-11-04T00:05:02+00:00
4914,MM73,small_airport,"Huetamo Airport",18.52739906311,-100.8509979248,984,NA,Mexico,MX,Michoacán,MX-MIC,MIC,Huetamo,0,MM73,,HTM,,https://es.wikipedia.org/wiki/Aer%C3%B3dromo_de_Huetamo,MM2M,50,2016-01-16T12:16:36+00:00
4715,MMIM,small_airport,"Aeropuerto Nacional de Isla Mujeres",21.245962,-86.740365,7,NA,Mexico,MX,"Quintana Roo",MX-ROO,ROO,"Isla Mujeres",0,MMIM,ISJ,,,https://en.wikipedia.org/wiki/Isla_Mujeres_National_Airport,,50,2023-11-04T00:04:13+00:00
329694,MX-0921,small_airport,"La Mezquitosa Airport",27.652889,-100.530917,883,NA,Mexico,MX,Coahuila,MX-COA,COA,Juárez,0,,,RMZ,,,,50,2018-11-18T19:29:20+00:00
321695,MX-0346,small_airport,"Apozolco Airport",21.430033,-103.905605,2362,NA,Mexico,MX,Nayarit,MX-NAY,NAY,"La Yesca",0,,,APJ,,,,50,2017-01-01T16:59:40+00:00
321696,MX-0347,small_airport,"Mecatillo Airport",21.240628,-104.167934,3560,NA,Mexico,MX,Nayarit,MX-NAY,NAY,"La Yesca",0,,,MDM,,,,50,2017-01-01T17:20:49+00:00
321116,MX-0303,small_airport,"San Roberto Airport",27.104167,-100.831389,1230,NA,Mexico,MX,"Nuevo León",MX-NLE,NLE,Lampazos,0,,,SRE,,,"Runway is in Coahuila and Nuevo León",50,2016-11-10T18:40:07+00:00
326239,MX-0615,small_airport,"Sotolar Airport",24.952362,-99.616978,1250,NA,Mexico,MX,"Nuevo León",MX-NLE,NLE,Linares,0,,,STO,,,,50,2018-01-26T11:06:18+00:00
317353,MX-0120,small_airport,"Nicolas Bravo Airport",17.734577,-92.62813,56,NA,Mexico,MX,Tabasco,MX-TAB,TAB,Macuspana,0,,,NBT,,,,50,2016-03-26T00:08:16+00:00
300560,MX-0010,small_airport,"General Gonzalo Curiel García - Mascota National Airport",20.538436,-104.805589,4055,NA,Mexico,MX,Jalisco,MX-JAL,JAL,Mascota,0,,,MAS,,,,50,2021-08-05T17:43:55+00:00
319370,MX-0203,small_airport,"Aeropuerto de Mina Peñasquito (Aeródromo Cedros)",24.6353,-101.79655,5600,NA,Mexico,MX,Zacatecas,MX-ZAC,ZAC,Mazapil,0,,,CED,,,,50,2023-11-06T12:31:48+00:00
32291,MX-SGM,small_airport,"San Ignacio Airport",27.2966,-112.938004,800,NA,Mexico,MX,"Baja California Sur",MX-BCS,BCS,Mulegé,0,,SGM,SIY,,https://en.wikipedia.org/wiki/San_Ignacio_Airfield,MM26,50,2020-12-28T16:11:07+00:00
308377,MX-0016,small_airport,"Bahía Tortugas Airfield",27.706336,-114.912922,102,NA,Mexico,MX,"Baja California Sur",MX-BCS,BCS,Mulegé,0,MX13,,BTR,,https://en.wikipedia.org/wiki/Bah%C3%ADa_Tortugas_Airfield,,50,2020-12-28T14:00:08+00:00
308397,MX-0028,small_airport,"San Lucas Military Airstrip",27.208757,-112.218034,9,NA,Mexico,MX,"Baja California Sur",MX-BCS,BCS,Mulegé,0,MX94,,,,https://en.wikipedia.org/wiki/San_Lucas_Military_Airstrip,,50,2020-12-28T14:08:21+00:00
308400,MX-0030,small_airport,"Santa María de Mulegé Airport",27.394079,-112.305336,29,NA,Mexico,MX,"Baja California Sur",MX-BCS,BCS,Mulegé,0,,,SMM,,https://en.wikipedia.org/wiki/Santa_Mar%C3%ADa_de_Muleg%C3%A9_Airport,,50,2020-12-28T14:10:21+00:00
43107,MX-NVJ,small_airport,"Navojoa Municipal Airport",26.992201,-109.416,981,NA,Mexico,MX,Sonora,MX-SON,SON,Navojoa,0,MMNV,,NVJ,,https://en.wikipedia.org/wiki/Navojoa_Airport,,50,2020-12-13T11:31:15+00:00
323420,MX-0439,small_airport,"Nueva Colonia Airstrip",22.316867,-104.0207,,NA,Mexico,MX,Jalisco,MX-JAL,JAL,"Nueva Colonia",0,,,,,,,50,2017-05-24T09:35:11+00:00
332072,MX-1095,small_airport,"Pajacuaran Airport",20.164428,-102.618806,5010,NA,Mexico,MX,Michoacán,MX-MIC,MIC,Pajacuaran,0,,,PJC,,,,50,2019-08-31T13:07:10+00:00
319964,MX-0295,small_airport,"La Poza Airport",22.132,-98.2066,40,NA,Mexico,MX,Veracruz,MX-VER,VER,Panuco,0,,,LPJ,,,,50,2016-08-26T11:04:53+00:00
348978,MX-1760,small_airport,"Bahía la Choya Ultralightport",31.33658,-113.61543,16,NA,Mexico,MX,Sonora,MX-SON,SON,"Puerto Peñasco",0,,,,,,,50,2021-10-20T10:06:55+00:00
334451,MX-1186,small_airport,"El Pinacate Airport",31.50727,-113.41819,,NA,Mexico,MX,Sonora,MX-SON,SON,"Puerto Peñasco",0,,,,,,,50,2020-06-17T17:07:27+00:00
319404,MX-0225,small_airport,"Palula Airport",23.809294,-101.408446,7070,NA,Mexico,MX,"San Luis Potosí",MX-SLP,SLP,"Real del Catorce",0,,,PLU,,,,50,2016-07-09T14:02:36+00:00
322967,MX-0408,small_airport,"Bravo Airport",25.972194,-98.119168,138,NA,Mexico,MX,Tamaulipas,MX-TAM,TAM,"Rio Bravo",0,,,AAB,,,MMRR,50,2022-06-19T02:01:03+00:00
329089,MX-0822,small_airport,"Los Fresnos Airport",25.918278,-98.014096,66,NA,Mexico,MX,Tamaulipas,MX-TAM,TAM,"Rio Bravo",0,,,LFE,,,,50,2018-08-25T23:39:08+00:00
330975,MX-1036,small_airport,"Las Gemelas Airport",25.883029,-98.121273,98,NA,Mexico,MX,Tamaulipas,MX-TAM,TAM,"Rio Bravo",0,,,VMV,,,,50,2019-04-12T10:55:36+00:00
348968,MX-1754,small_airport,"El Huizache Airport",25.914085,-98.113914,98,NA,Mexico,MX,Tamaulipas,MX-TAM,TAM,"Rio Bravo",0,,,HZH,,,,50,2021-10-20T05:39:40+00:00
323422,MX-0441,small_airport,"San Andrés Cohamiata Airstrip",22.190108,-104.244516,,NA,Mexico,MX,Jalisco,MX-JAL,JAL,"San Andrés Cohamiata",0,,,,,,,50,2017-05-24T09:38:04+00:00
323404,MX-0428,small_airport,"San Bias Airport",21.546076,-105.28736,,NA,Mexico,MX,Nayarit,MX-NAY,NAY,"San Bias",0,,,,,,,50,2021-10-12T17:30:37+00:00
322963,MX-0407,small_airport,"Paso Real Airstrip",24.824711,-98.164431,,NA,Mexico,MX,Tamaulipas,MX-TAM,TAM,"San Fernando",0,,,,,,,50,2017-05-02T09:20:20+00:00
46095,MX-0002,small_airport,"Rancho Meling Airstrip",30.975328,-115.737877,2110,NA,Mexico,MX,"Baja California",MX-BCN,BCN,"San Quintín",0,,,MNG,,,"Rancho San Jose",50,2022-11-01T13:09:46+00:00
46651,BLM,small_airport,"Muñoz Landing Airstrip",28.891952,-113.528724,33,NA,Mexico,MX,"Baja California",MX-BCN,BCN,"San Quintín",0,,,BLM,,,"Bahia de Los Angeles South",50,2022-11-01T13:13:18+00:00
326487,MX-0647,small_airport,"Campo de Lorenzo Skypark",30.4895,-115.977806,16,NA,Mexico,MX,"Baja California",MX-BCN,BCN,"San Quintín",0,,,LZB,,,"Lorenzos de Baya",50,2022-11-01T13:07:46+00:00
300562,MX-0011,small_airport,"San Sebastián Airport",20.7658916667,-104.8685,4232,NA,Mexico,MX,Jalisco,MX-JAL,JAL,"San Sebastian Del Oeste",0,,,SSB,,,,50,2015-08-23T16:27:44+00:00
319407,MX-0227,small_airport,"Moctezuma Airport",21.916127,-98.5521,75,NA,Mexico,MX,"San Luis Potosí",MX-SLP,SLP,"San Vicente Tancuayalab",0,,,MOE,,,,50,2016-07-09T15:38:42+00:00
318883,MX-0154,small_airport,"La Victoria Airport",23.6813,-98.048908,55,NA,Mexico,MX,Tamaulipas,MX-TAM,TAM,"Soto La Marina",0,,,LVC,,,,50,2016-06-18T08:19:30+00:00
328854,MX-0787,small_airport,"Los Manueles Airport",23.441519,-97.876035,249,NA,Mexico,MX,Tamaulipas,MX-TAM,TAM,"Soto La Marina",0,,,RLM,,,,50,2018-07-26T20:08:03+00:00
300518,MX-0009,small_airport,"Trinidad Ramos Valdez Airport",20.370806,-104.826465,3799,NA,Mexico,MX,Jalisco,MX-JAL,JAL,"Talpa de Allende",0,,,TLJ,,,,50,2021-10-12T17:36:38+00:00
325178,MX-0566,small_airport,"Tampachiche Airport",21.981389,-97.716111,10,NA,Mexico,MX,Veracruz,MX-VER,VER,"Tampico El Alto",0,,,THI,,,,50,2017-10-13T23:16:36+00:00
4759,MMTN,small_airport,"Tamuin Airport",22.0383,-98.806502,164,NA,Mexico,MX,"San Luis Potosí",MX-SLP,SLP,Tamuin,0,MMTN,TSL,TMN,,https://en.wikipedia.org/wiki/Tamu%C3%ADn_National_Airport,,50,2023-05-20T16:11:48+00:00
328279,MX-0731,small_airport,"C.P.A. Roberto Nevarez Dominguez Airport",18.793401,-103.786115,33,NA,Mexico,MX,Colima,MX-COL,COL,Tecomán,0,,,RNZ,,,,50,2018-06-09T18:46:39+00:00
4913,MM72,small_airport,"Aeropuerto Nacional Cupul",21.155716,-88.172918,56,NA,Mexico,MX,Yucatán,MX-YUC,YUC,Tizimin,0,MM72,TZM,MM72,,,MXA3,50,2023-11-01T15:43:14+00:00
319337,MX-0198,small_airport,"La Gloria III Airport",19.897267,-105.294851,147,NA,Mexico,MX,Jalisco,MX-JAL,JAL,Tomatlán,0,,,GLR,,,,50,2021-10-12T17:45:10+00:00
331758,MX-1086,small_airport,"Aeródromo Toro Bravo",18.12463,-96.111918,66,NA,Mexico,MX,Oaxaca,MX-OAX,OAX,"Toro Bravo",0,,,MFS,,,,50,2023-11-01T15:28:41+00:00
319339,MX-0200,small_airport,"Los Gonzalez Airport",20.553263,-102.692352,5090,NA,Mexico,MX,Jalisco,MX-JAL,JAL,Tototlán,0,,,LGF,,,"Aero Fumigaciones Gonzalez",50,2023-05-24T13:53:51+00:00
4882,MM31,small_airport,"Fausto Vega Santander Airport",20.9468,-97.375099,10,NA,Mexico,MX,Veracruz,MX-VER,VER,"Túxpam de Rodríguez Cano",0,MM31,,MM31,,,,50,2021-08-11T13:48:17+00:00
321691,MX-0342,small_airport,"Pista Aérea de Tuxpan",21.942507,-105.274911,33,NA,Mexico,MX,Nayarit,MX-NAY,NAY,Tuxpan,0,,,TXP,,,,50,2017-01-01T16:16:01+00:00
319552,MX-0245,small_airport,"Aeroclub Valle de Bravo Airfield",19.145245,-100.074855,7229,NA,Mexico,MX,"México (state)",MX-MEX,MEX,"Valle de Bravo",0,MX69,,ACJ,,https://es.wikipedia.org/wiki/Aer%C3%B3dromo_de_Valle_de_Bravo,MX69,50,2023-09-30T02:53:22+00:00
318942,MX-0170,small_airport,"Aeródromo “Xcalak”",18.266738,-87.85515,7,NA,Mexico,MX,"Quintana Roo",MX-ROO,ROO,Xcalak,0,,,XCA,,,Xcalac,50,2023-11-04T00:03:02+00:00
4900,MM56,small_airport,"Xicoténcatl Airport",22.953829,-98.959908,377,NA,Mexico,MX,Tamaulipas,MX-TAM,TAM,Xicoténcatl,0,MM56,,XIC,,,,50,2023-08-29T13:37:23+00:00
43045,MX-0001,small_airport,"Yécora Airport",28.354700088501,-108.92500305176,5038,NA,Mexico,MX,Sonora,MX-SON,SON,Yécora,0,,,YEC,,"https://en.wikipedia.org/wiki/Y%C3%A9cora,_Sonora",,50,2015-08-22T17:53:28+00:00
329188,MX-0847,heliport,"Helipuerto de Torre Polanco",19.43299,-99.181508,7799,NA,Mexico,MX,"Ciudad de México",MX-DIF,DIF,"Miguel Hidalgo",0,,,HPL,,,,0,2023-11-01T15:34:16+00:00
336374,MX-1271,heliport,"Helipuerto de Torre Óptima",19.430307,-99.211276,7867,NA,Mexico,MX,"Ciudad de México",MX-DIF,DIF,"Miguel Hidalgo",0,,,HTP,,,,0,2023-11-01T15:34:54+00:00
338154,MX-1438,heliport,"Puerto Peñasco Naval Heliport",31.306,-113.54736,,NA,Mexico,MX,Sonora,MX-SON,SON,"Puerto Peñasco",0,,,,,,,0,2020-12-28T16:28:01+00:00
325265,MX-0596,seaplane_base,"Paredes Seaplane Base",31.311,-113.552331,0,NA,Mexico,MX,Sonora,MX-SON,SON,"Puerto Peñasco",0,,,PDZ,,,,0,2017-10-22T22:40:38+00:00
4720,MMLC,medium_airport,"Lázaro Cárdenas Airport",18.0016994476,-102.221000671,39,NA,Mexico,MX,Michoacán,MX-MIC,MIC,"Lázaro Cárdenas",1,MMLC,LZC,,,https://en.wikipedia.org/wiki/L%C3%A1zaro_C%C3%A1rdenas_Airport,,750,2010-09-06T17:17:11+00:00
323400,MX-0424,medium_airport,"Creel International Airport",27.725133,-107.652015,8132,NA,Mexico,MX,Chihuahua,MX-CHH,CHH,"Bocoyna (Creel)",0,MX31,,,,,"Barrancas del Cobre Regional",250,2021-10-15T17:59:31+00:00
4897,MM52,small_airport,"Camaguey-Campo Cuatro Milpas Airport",25.652200698853,-108.53800201416,92,NA,Mexico,MX,Sinaloa,MX-SIN,SIN,Guasave,1,,,CMG,,https://en.wikipedia.org/wiki/Campo_Cuatro_Milpas_Airport,MM52,150,2016-01-30T00:55:04+00:00
330942,MX-1030,small_airport,"San José Airport",27.848115,-104.204827,5157,NA,Mexico,MX,Chihuahua,MX-CHH,CHH,Camargo,1,,,SJE,,https://en.wikipedia.org/wiki/Jorge_Enrique_Gonz%C3%A1lez_Torres_Airport,,100,2021-07-31T17:14:39+00:00
329563,MX-0909,small_airport,"Yalcok Airport",16.344274,-91.993828,5177,NA,Mexico,MX,Chiapas,MX-CHP,CHP,Margaritas,1,,,YLK,,,,100,2018-10-27T11:51:13+00:00
314712,SRL,small_airport,"Palo Verde Airport",27.0927,-112.0985,127,NA,Mexico,MX,"Baja California Sur",MX-BCS,BCS,Mulegé,1,,SRL,CIB,,https://en.wikipedia.org/wiki/Palo_Verde_Airport,"CIB, PVP, Chivato Bay, San Bruno",100,2020-12-28T14:05:48+00:00
327976,MX-0687,small_airport,"Agricola La Tuxcana Airport",19.729351,-103.977854,2858,NA,Mexico,MX,Jalisco,MX-JAL,JAL,Tuxcacuesco,1,,,TUX,,,,100,2018-05-26T11:03:12+00:00
514423,MX-2122,small_airport,"Aeropuerto Nacional Militar de Ciudad de México (Estación Aeronaval Ciudad de México)",19.426074,-99.076606,,NA,Mexico,MX,"Ciudad de México",MX-DIF,DIF,,0,,,,https://www.gob.mx/semar,https://es.wikipedia.org/wiki/Aviación_Naval_Mexicana,,50,2023-11-06T14:57:28+00:00
4904,MM61,closed,"Aeródromo de Ixmiquilpan",20.486,-99.258797,5577,NA,Mexico,MX,Hidalgo,MX-HID,HID,,0,,,,,,MM61,50,2023-11-01T15:41:18+00:00
4917,MM77,small_airport,"Las Delicias Airport",28.21310043334961,-105.447998046875,3888,NA,Mexico,MX,Chihuahua,MX-CHH,CHH,,0,MM77,,MM77,,,,50,2008-06-13T14:30:04+00:00
4896,MM51,small_airport,"Rancho Guadalupe South Airport",26.63559913635254,-100.88999938964844,2200,NA,Mexico,MX,Coahuila,MX-COA,COA,,0,MM51,,MM51,,,,50,2008-08-03T11:46:47+00:00
4921,MM82,small_airport,"Laguna Del Rey Airport",27.0238,-103.375,3450,NA,Mexico,MX,Coahuila,MX-COA,COA,,0,,,LRY,,,MM82,50,2017-07-02T19:08:01+00:00
4767,MMZM,small_airport,"Zamora Airport",20.045,-102.276001,5141,NA,Mexico,MX,Michoacán,MX-MIC,MIC,,0,MMZM,ZMM,ZAM,,,,50,2017-10-23T00:00:28+00:00
4884,MM36,small_airport,"Rancho San Salvador Northeast Airport",26.678499221801758,-100.1709976196289,900,NA,Mexico,MX,"Nuevo León",MX-NLE,NLE,,0,MM36,,MM36,,,,50,2008-06-13T14:30:04+00:00
4890,MM44,small_airport,"Agualeguas Old Airport",26.304399490356445,-99.55020141601562,676,NA,Mexico,MX,"Nuevo León",MX-NLE,NLE,,0,MM44,,MM44,,,,50,2008-06-13T14:30:04+00:00
4893,MM48,small_airport,"Ciudad Pemex Airport",17.88010025024414,-92.47570037841797,20,NA,Mexico,MX,Tabasco,MX-TAB,TAB,,0,MM48,,MM48,,,,50,2008-06-13T14:30:04+00:00
322962,MX-0406,small_airport,"Kilo Airport",25.837279,-98.117336,102,NA,Mexico,MX,Tamaulipas,MX-TAM,TAM,,0,,,TRM,,,,50,2018-08-19T16:07:41+00:00
329514,MX-0896,small_airport,"El Paraiso Airport",23.047647,-97.822402,141,NA,Mexico,MX,Tamaulipas,MX-TAM,TAM,,0,,,ERP,,,,50,2018-10-21T21:53:50+00:00
317112,MX-0118,small_airport,"La Azufrosa Airport",28.1019,-102.1963,3770,NA,Mexico,MX,Coahuila,MX-COA,COA,Acampo,0,,,RLA,,,,50,2016-02-25T23:49:33+00:00
316880,MX-0109,small_airport,"Acaponeta Airport",22.4832,-105.4118,70,NA,Mexico,MX,Nayarit,MX-NAY,NAY,Acaponeta,0,,,ACP,,,MX02,50,2021-10-12T17:23:28+00:00
337318,MX-1297,small_airport,"Aconchi Airport",29.8356,-110.2239,2041,NA,Mexico,MX,Sonora,MX-SON,SON,Aconchi,0,,,,,,,50,2020-11-17T16:51:59+00:00
4907,MM65,small_airport,"La Calera Airport",31.2523,-109.608002,4213,NA,Mexico,MX,Sonora,MX-SON,SON,"Agua Prieta",0,,,LKE,,,"MM65, Agua Prieta South",50,2020-12-22T21:54:16+00:00
319793,MX-0277,small_airport,"Rancho Los Chirriones Airport",31.0276,-109.204,3500,NA,Mexico,MX,Sonora,MX-SON,SON,"Agua Prieta",0,,,RLC,,,,50,2016-08-04T20:13:01+00:00
336082,MX-1250,small_airport,"Colonia Oquita Montenegro Airstrip",31.1611,-109.2203,,NA,Mexico,MX,Sonora,MX-SON,SON,"Agua Prieta",0,,,,,,,50,2020-09-24T11:20:22+00:00
4689,MMAL,small_airport,"Agualeguas National Airport",26.334,-99.542397,676,NA,Mexico,MX,"Nuevo León",MX-NLE,NLE,Agualeguas,0,MMAL,,AGL,,https://es.wikipedia.org/wiki/Aeropuerto_Nacional_de_Agualeguas,,50,2021-10-04T17:53:49+00:00
316883,MX-0110,small_airport,"La Gloria Airport",26.3304,-99.4858,526,NA,Mexico,MX,"Nuevo León",MX-NLE,NLE,Agualeguas,0,,,TKT,,,,50,2016-01-30T09:27:17+00:00
331654,MX-1075,small_airport,"Rancho La Joya Airport",26.301306,-99.635639,741,NA,Mexico,MX,"Nuevo León",MX-NLE,NLE,Agualeguas,0,,,RHD,,,,50,2019-07-13T11:07:55+00:00
348309,MX-1660,small_airport,"Arroyo Carrizalejos Airport",26.38208,-99.60298,660,NA,Mexico,MX,"Nuevo León",MX-NLE,NLE,Agualeguas,0,,,,,,,50,2021-10-04T17:53:05+00:00
319698,MX-0263,small_airport,"Aerosam Airport",18.98022,-102.71668,983,NA,Mexico,MX,Michoacán,MX-MIC,MIC,Aguililla,0,,,BAG,,,,50,2016-07-28T20:47:15+00:00
319699,MX-0264,small_airport,"Aguililla Airport",18.742388,-102.801245,3175,NA,Mexico,MX,Michoacán,MX-MIC,MIC,Aguililla,0,,,AGI,,,,50,2016-07-28T20:58:49+00:00
330978,MX-1039,small_airport,"Tototan Airstrip",18.367495,-102.772036,1148,NA,Mexico,MX,Michoacán,MX-MIC,MIC,Aguililla,0,,,TTO,,,,50,2019-04-12T11:22:16+00:00
316367,MX-0088,small_airport,"Santa Paula Airport",25.8466,-108.9707,65,NA,Mexico,MX,Sinaloa,MX-SIN,SIN,Ahome,0,,,PAU,,,,50,2015-11-15T23:52:05+00:00
321649,MX-0332,small_airport,"Mayocoba Agricultural Airstrip",25.933889,-109.210556,26,NA,Mexico,MX,Sinaloa,MX-SIN,SIN,Ahome,0,,,PMY,,,,50,2021-10-17T21:48:12+00:00
325176,MX-0564,small_airport,"El Carrizo Ahome Airport",26.263685,-109.048888,56,NA,Mexico,MX,Sinaloa,MX-SIN,SIN,Ahome,0,,,CRH,,,,50,2021-10-17T21:43:19+00:00
329406,MX-0876,small_airport,"Guayparime II Airport",25.7426,-108.957343,33,NA,Mexico,MX,Sinaloa,MX-SIN,SIN,Ahome,0,,,GYE,,,,50,2018-10-06T12:43:31+00:00
329519,MX-0901,small_airport,"Farallon Airport",25.736639,-108.927861,49,NA,Mexico,MX,Sinaloa,MX-SIN,SIN,Ahome,0,,,FRL,,,,50,2018-10-21T23:23:10+00:00
330229,MX-0974,small_airport,"Rodríguez Airport",26.317875,-109.029528,59,NA,Mexico,MX,Sinaloa,MX-SIN,SIN,Ahome,0,,,RZZ,,,,50,2019-01-26T14:43:11+00:00
332075,MX-1098,small_airport,"Nuevo Santa Rosa Airport",25.805825,-108.934456,56,NA,Mexico,MX,Sinaloa,MX-SIN,SIN,Ahome,0,,,NSR,,,,50,2019-08-31T13:35:05+00:00
316534,MX-0090,small_airport,"Malvinas Airstrip",22.686,-97.9286,73,NA,Mexico,MX,Tamaulipas,MX-TAM,TAM,Aldama,0,,,MAV,,,,50,2015-12-12T16:01:44+00:00
325188,MX-0575,small_airport,"La Coma Airport",23.041987,-98.107789,591,NA,Mexico,MX,Tamaulipas,MX-TAM,TAM,Aldama,0,,,LKA,,,,50,2017-10-14T01:11:49+00:00
328265,MX-0717,small_airport,"El Nopal Airport",23.173322,-98.113525,817,NA,Mexico,MX,Tamaulipas,MX-TAM,TAM,Aldama,0,,,RYO,,,,50,2018-06-09T14:26:28+00:00
329104,MX-0832,small_airport,"Cuestecitas Airport",22.773537,-98.050343,121,NA,Mexico,MX,Tamaulipas,MX-TAM,TAM,Aldama,0,,,CSS,,,,50,2018-08-26T12:27:38+00:00
334856,MX-1197,small_airport,"Anna Airstrip",22.911556,-98.310583,587,NA,Mexico,MX,Tamaulipas,MX-TAM,TAM,Aldama,0,,,ANS,,,,50,2020-06-23T17:22:18+00:00
336346,MX-1265,small_airport,"El Cohete Airstrip",22.795757,-98.140193,262,NA,Mexico,MX,Tamaulipas,MX-TAM,TAM,Aldama,0,,,LUK,,,,50,2020-10-02T23:18:37+00:00
349568,MX-1839,small_airport,"Los Miles Airstrip",23.04769,-97.794596,249,NA,Mexico,MX,Tamaulipas,MX-TAM,TAM,Aldama,0,,,MLT,,,,50,2021-11-08T21:25:18+00:00
316086,MX-0073,small_airport,"C.P.A. Rodolfo Amparan Rosales Airport",28.8592,-105.8702,4125,NA,Mexico,MX,Chihuahua,MX-CHH,CHH,Aldama,0,,,RAV,,,,50,2015-10-30T00:11:58+00:00
321822,MX-0364,small_airport,"Rancho Santa Maria Airport",28.753366,-105.677934,3898,NA,Mexico,MX,Chihuahua,MX-CHH,CHH,Aldama,0,,,CFF,,,,50,2017-01-13T21:01:39+00:00
322564,MX-0392,small_airport,"Pueblito Airport",29.068194,-105.126663,3412,NA,Mexico,MX,Chihuahua,MX-CHH,CHH,Aldama,0,,,PBL,,,,50,2017-03-31T16:08:28+00:00
336376,MX-1273,small_airport,"El Gargaliote Airport",29.460606,-105.608492,4367,NA,Mexico,MX,Chihuahua,MX-CHH,CHH,Aldama,0,,,GBF,,,,50,2020-10-05T12:48:13+00:00
349718,MX-1866,small_airport,"Rancho Santa Ana Airstrip",28.873727,-105.912677,4127,NA,Mexico,MX,Chihuahua,MX-CHH,CHH,Aldama,0,,,RNT,,,,50,2021-11-14T00:31:05+00:00
350000,MX-1880,small_airport,"Huerta 7433 Airstrip",28.885564,-105.44305,3533,NA,Mexico,MX,Chihuahua,MX-CHH,CHH,Aldama,0,,,UER,,,,50,2021-11-28T16:02:28+00:00
350430,MX-1902,small_airport,"El Coyote Airstrip",28.915699,-105.859146,4068,NA,Mexico,MX,Chihuahua,MX-CHH,CHH,Aldama,0,,,ECX,,,,50,2021-12-09T21:20:08+00:00
509160,MX-2084,small_airport,"Rancho Martínez Airport",29.17168,-105.96775,3986,NA,Mexico,MX,Chihuahua,MX-CHH,CHH,Aldama,0,,,,,,,50,2023-05-26T04:26:47+00:00
325181,MX-0569,small_airport,"C.P.A Jesus Ernesto Lozano Jimenez Airport",26.967253,-105.426192,5446,NA,Mexico,MX,Chihuahua,MX-CHH,CHH,Allende,0,,,ELQ,,,,50,2017-10-14T00:30:15+00:00
330729,MX-1010,small_airport,"Piedras Blancas Airport",25.294266,-100.016139,1476,NA,Mexico,MX,"Nuevo León",MX-NLE,NLE,Allende,0,,,PNL,,,,50,2019-03-08T20:24:47+00:00
329098,MX-0827,small_airport,"La Escondida Airport",22.590583,-97.996556,82,NA,Mexico,MX,Tamaulipas,MX-TAM,TAM,Altamira,0,,,RLD,,,,50,2018-08-26T09:59:36+00:00
330742,MX-1020,small_airport,"Rancho Santo Domingo Airport",22.601441,-97.93166,49,NA,Mexico,MX,Tamaulipas,MX-TAM,TAM,Altamira,0,,,SDI,,,,50,2019-03-10T11:53:46+00:00
348944,MX-1747,small_airport,"Lindavista Airstrip.",22.541852,-98.281589,148,NA,Mexico,MX,Tamaulipas,MX-TAM,TAM,Altamira,0,,,LDV,,,,50,2021-10-19T05:27:06+00:00
338952,MX-1477,small_airport,"Rancho Divino Niño Airstrip",30.73278,-111.7833,,NA,Mexico,MX,Sonora,MX-SON,SON,Altar,0,,,,,,,50,2021-01-09T12:58:12+00:00
315612,MX-0068,small_airport,"El Janeño Airstrip",31.1508,-111.9748,2000,NA,Mexico,MX,Sonora,MX-SON,SON,Altar,0,,,JNN,,,,50,2015-10-01T00:29:38+00:00
326481,MX-0642,small_airport,"El Cuervo Airport",27.571972,-100.297778,787,NA,Mexico,MX,"Nuevo León",MX-NLE,NLE,Anahuac,0,,,JGT,,,,50,2018-02-23T17:36:31+00:00
329509,MX-0891,small_airport,"El Centenario Airstrip",26.948111,-99.866389,466,NA,Mexico,MX,"Nuevo León",MX-NLE,NLE,Anáhuac,0,,,CTO,,,,50,2021-10-04T17:46:46+00:00
335020,MX-1214,small_airport,"El Coche Airport",27.526694,-100.243472,820,NA,Mexico,MX,"Nuevo León",MX-NLE,NLE,Anahuac,0,,,ELC,,,,50,2020-07-06T15:47:07+00:00
337473,MX-1353,small_airport,"El Pillaje Airport",27.681932,-100.191579,755,NA,Mexico,MX,"Nuevo León",MX-NLE,NLE,Anáhuac,0,,,RPH,,,"Los Sauces",50,2021-05-27T11:25:28+00:00
353062,MX-1939,small_airport,"Mario Palau Airport",27.19286,-100.16312,636,NA,Mexico,MX,"Nuevo León",MX-NLE,NLE,Anáhuac,0,,,,,,,50,2022-02-27T10:20:26+00:00
324245,MX-0515,small_airport,"El Mochomo Airport",25.196893,-108.068683,98,NA,Mexico,MX,Sinaloa,MX-SIN,SIN,Angostura,0,,,MOH,,,,50,2017-07-02T16:14:41+00:00
327794,MX-0678,small_airport,"La Rosca Airport",25.403452,-108.121214,131,NA,Mexico,MX,Sinaloa,MX-SIN,SIN,Angostura,0,,,ROS,,,,50,2018-05-11T17:21:06+00:00
328273,MX-0725,small_airport,"La Esperanza Airport",25.354368,-108.2187,49,NA,Mexico,MX,Sinaloa,MX-SIN,SIN,Angostura,0,,,LAE,,,,50,2018-06-09T17:45:34+00:00
330297,MX-1005,small_airport,"Acatita Airport",25.319443,-108.03553,164,NA,Mexico,MX,Sinaloa,MX-SIN,SIN,Angostura,0,,,ACT,,,,50,2019-02-02T13:09:30+00:00
337421,MX-1324,small_airport,"Aerofumigaciones La 300 Airport",25.244492,-108.09415,52,NA,Mexico,MX,Sinaloa,MX-SIN,SIN,Angostura,0,,,ELD,,,,50,2020-11-22T12:05:45+00:00
343221,MX-1615,small_airport,"Marina Heroica Naval Academy Airfield",19.04705,-95.97628,23,NA,Mexico,MX,Veracruz,MX-VER,VER,"Anton Lizardo",0,,,,,,,50,2021-04-18T22:34:55+00:00
30671,MX-AZG,small_airport,"Apatzingán - Pablo L. Sidar Airport",19.093399,-102.393997,1033,NA,Mexico,MX,Michoacán,MX-MIC,MIC,Apatzingán,0,MMAG,AZG,AZG,,https://es.wikipedia.org/wiki/Aeropuerto_Nacional_Pablo_L._Sidar,MM16,50,2021-10-12T17:50:49+00:00
337475,MX-1355,small_airport,"El Tigre Airport",23.992046,-99.999876,5771,NA,Mexico,MX,"Nuevo León",MX-NLE,NLE,Aramberri,0,,,TGE,,,,50,2020-11-27T13:40:43+00:00
4920,MM81,small_airport,"Estación Aeronaval de Isla Socorro",18.775949,-110.930972,1085,NA,Mexico,MX,Colima,MX-COL,COL,"Archipiélago de Revillagigedo",0,MM81,,MM81,https://www.gob.mx/semar,https://es.m.wikipedia.org/wiki/Archipiélago_de_Revillagigedo,,50,2023-11-04T00:14:48+00:00
319700,MX-0265,small_airport,"Carlos Díaz Becerril Airport",19.2371,-101.67952,6760,NA,Mexico,MX,Michoacán,MX-MIC,MIC,"Ario de Rosales",0,,,CDB,,,,50,2016-07-29T02:58:51+00:00
326414,MX-0624,small_airport,"Tarachi Airport",28.807181,-108.929022,4003,NA,Mexico,MX,Sonora,MX-SON,SON,Arivechi,0,,,TAR,,,,50,2018-02-16T12:52:10+00:00
335982,MX-1242,small_airport,"Bacanuchi Airstrip",30.61437,-110.234134,,NA,Mexico,MX,Sonora,MX-SON,SON,Arizpe,0,,,,,,,50,2020-09-23T11:35:06+00:00
337316,MX-1295,small_airport,"Santa Rosa Airstrip",30.353,-109.8514,3236,NA,Mexico,MX,Sonora,MX-SON,SON,Arizpe,0,,,,,,,50,2020-11-17T16:41:03+00:00
337322,MX-1301,small_airport,"Sinoquipe Airport",30.1606,-110.2505,2484,NA,Mexico,MX,Sonora,MX-SON,SON,Arizpe,0,,,,,,,50,2020-11-17T16:59:32+00:00
337323,MX-1302,small_airport,"Arizpe Airport",30.372701,-110.1641,2852,NA,Mexico,MX,Sonora,MX-SON,SON,Arizpe,0,,,,,,,50,2020-11-17T17:07:59+00:00
337324,MX-1303,small_airport,"Buenavista Airport",30.3939,-110.0504,3038,NA,Mexico,MX,Sonora,MX-SON,SON,Arizpe,0,,,,,,,50,2021-10-20T10:13:31+00:00
353374,MX-1961,small_airport,"Murucutachi Mine Airport",30.39566,-109.94234,3965,NA,Mexico,MX,Sonora,MX-SON,SON,Arizpe,0,,,,,,,50,2022-03-08T12:20:52+00:00
349219,MX-1810,small_airport,"Cerro de Enmedio Airstrip",25.296396,-100.782166,6693,NA,Mexico,MX,Coahuila,MX-COA,COA,Arteaga,0,,,CDW,,,,50,2021-10-27T11:13:22+00:00
316705,MX-0096,small_airport,"Guadalupe Airstrip",25.189,-100.767,6730,NA,Mexico,MX,Coahuila,MX-COA,COA,Arteaga,0,,,RGP,,,,50,2016-01-16T11:24:39+00:00
322556,MX-0385,small_airport,"El Fresnal Airport",31.038086,-107.530996,4049,NA,Mexico,MX,Chihuahua,MX-CHH,CHH,Ascencion,0,,,FNL,,,,50,2017-03-31T13:01:28+00:00
335988,MX-1244,small_airport,"Rancho El Espía Airstrip",31.383496,-107.981328,,NA,Mexico,MX,Chihuahua,MX-CHH,CHH,Ascensión,0,,,,,,,50,2021-10-20T16:37:46+00:00
348999,MX-1770,small_airport,"Las Lagartijas Airstrip",31.42107,-108.01354,4175,NA,Mexico,MX,Chihuahua,MX-CHH,CHH,Ascensión,0,,,,,,,50,2021-10-20T16:39:24+00:00
353059,MX-1937,small_airport,"Sierra Rica Airport",31.77542,-108.14504,4668,NA,Mexico,MX,Chihuahua,MX-CHH,CHH,Ascensión,0,,,,,,,50,2022-02-27T10:12:07+00:00
324301,MX-0551,small_airport,"Atlixco Airport",18.850475,-98.447013,5755,NA,Mexico,MX,Puebla,MX-PUE,PUE,Atlixco,0,,,AOC,,https://es.wikipedia.org/wiki/Aer%C3%B3dromo_de_Atlixco,Acocotla,50,2021-10-12T11:37:45+00:00
319588,MX-0255,small_airport,"Atoyac Airstrip",17.219413,-100.447935,205,NA,Mexico,MX,Guerrero,MX-GRO,GRO,"Atoyac de Alvarez",0,,,ATY,,,,50,2016-07-22T13:18:58+00:00
4905,MM63,small_airport,"Autlán Airport",19.7453,-104.336998,2900,NA,Mexico,MX,Jalisco,MX-JAL,JAL,"Autlán de Navarro",0,MM63,,AUN,,,"MM63, MX08",50,2016-07-03T15:41:54+00:00
321118,MX-0305,small_airport,"Cuautla de Huitzililla Airport",18.700277,-98.891944,3989,NA,Mexico,MX,Morelos,MX-MOR,MOR,Ayala,0,,,KHU,,,"Skydive Cuautla",50,2016-11-10T18:58:32+00:00
349159,MX-1793,small_airport,"Babunica Airstrip",25.559193,-107.311752,2297,NA,Mexico,MX,Sinaloa,MX-SIN,SIN,Babunica,0,,,BAU,,,,50,2021-10-26T11:16:38+00:00
329405,MX-0875,small_airport,"Bacadéhuachi Airport",29.820377,-109.142125,2342,NA,Mexico,MX,Sonora,MX-SON,SON,Bacadéhuachi,0,,,BAC,,,,50,2020-11-17T16:26:54+00:00
337433,MX-1332,small_airport,"El Bajio del Oso Airfield",30.276497,-108.924948,3543,NA,Mexico,MX,Sonora,MX-SON,SON,Bacerac,0,,,BDO,,,,50,2020-11-23T15:24:24+00:00
353238,MX-1949,small_airport,"Bacerac Airport",30.36254,-108.93616,3510,NA,Mexico,MX,Sonora,MX-SON,SON,Bacerac,0,,,,,,,50,2022-03-02T17:26:33+00:00
353373,MX-1960,small_airport,"La Gurruña Airport",30.59484,-109.86541,3916,NA,Mexico,MX,Sonora,MX-SON,SON,Bacoachi,0,,,,,,,50,2022-03-08T12:18:56+00:00
335980,MX-1240,small_airport,"Bacoachi Airstrip",30.646294,-109.975526,,NA,Mexico,MX,Sonora,MX-SON,SON,Bacoachi,0,,,BAK,,,,50,2021-10-26T10:47:13+00:00
322828,MX-0402,small_airport,"Fumigaciones Aereas Cervantes Airport",27.420556,-110.1,125,NA,Mexico,MX,Sonora,MX-SON,SON,Bácum,0,,,CFU,,,,50,2020-12-28T17:05:34+00:00
317110,MX-0116,small_airport,"El Limon de Badiraguato Airstrip",25.8242,-107.2327,4060,NA,Mexico,MX,Sinaloa,MX-SIN,SIN,Badiraguato,0,,,LDB,,,,50,2016-02-25T23:00:24+00:00
319972,MX-0302,small_airport,"Vallecitos Airport",25.7185,-107.1572,3950,NA,Mexico,MX,Sinaloa,MX-SIN,SIN,Badiraguato,0,,,VLL,,,,50,2016-08-26T13:02:35+00:00
323398,MX-0422,small_airport,"Badiraguato Airport",25.355589,-107.556547,832,NA,Mexico,MX,Sinaloa,MX-SIN,SIN,Badiraguato,0,,,,,,,50,2021-11-01T11:48:46+00:00
324280,MX-0541,small_airport,"Loma Linda Airstrip",25.840642,-107.322625,2763,NA,Mexico,MX,Sinaloa,MX-SIN,SIN,Badiraguato,0,,,LNA,,,,50,2017-07-03T00:27:43+00:00
324281,MX-0542,small_airport,"Bamopa Airport",25.527798,-107.296706,1496,NA,Mexico,MX,Sinaloa,MX-SIN,SIN,Badiraguato,0,,,BAM,,,,50,2017-07-03T00:48:56+00:00
325192,MX-0578,small_airport,"El Vallado Airport",25.947874,-107.368445,2231,NA,Mexico,MX,Sinaloa,MX-SIN,SIN,Badiraguato,0,,,VLO,,,,50,2017-10-14T11:21:14+00:00
325197,MX-0583,small_airport,"Santiago de Los Caballeros Airstrip",25.557614,-107.366323,3215,NA,Mexico,MX,Sinaloa,MX-SIN,SIN,Badiraguato,0,,,SCS,,,,50,2021-11-01T11:56:30+00:00
326617,MX-0668,small_airport,"El Cortijo de Guanetipa Airstrip",25.27639,-107.180162,4331,NA,Mexico,MX,Sinaloa,MX-SIN,SIN,Badiraguato,0,,,EDG,,,,50,2018-03-09T23:45:53+00:00
328654,MX-0754,small_airport,"Batopito Airstrip",25.295667,-107.547722,1214,NA,Mexico,MX,Sinaloa,MX-SIN,SIN,Badiraguato,0,,,BTT,,,,50,2018-07-04T22:34:19+00:00
330269,MX-0993,small_airport,"El Guayabo Airstrip",25.822401,-107.274996,3986,NA,Mexico,MX,Sinaloa,MX-SIN,SIN,Badiraguato,0,,,AGY,,,,50,2019-01-31T13:30:45+00:00
333495,MX-1147,small_airport,"San José del Llano Airport",25.775815,-107.33419,2139,NA,Mexico,MX,Sinaloa,MX-SIN,SIN,Badiraguato,0,,,SJL,,,,50,2021-10-31T21:50:34+00:00
333498,MX-1150,small_airport,"Huixiopa de La Loma Colorada Airport",25.762523,-107.194666,3002,NA,Mexico,MX,Sinaloa,MX-SIN,SIN,Badiraguato,0,,,XIO,,,,50,2020-03-01T01:12:11+00:00
333500,MX-1152,small_airport,"El Pinal Airstrip",25.894631,-107.502294,3937,NA,Mexico,MX,Sinaloa,MX-SIN,SIN,Badiraguato,0,,,EPP,,,,50,2020-03-01T01:34:11+00:00
333508,MX-1156,small_airport,"El Roble Gordo Airstrip",25.849289,-107.337456,2100,NA,Mexico,MX,Sinaloa,MX-SIN,SIN,Badiraguato,0,,,RDO,,,,50,2020-03-01T11:21:53+00:00
333513,MX-1161,small_airport,"La Tuna de Badiraguato Airport",25.694228,-107.140603,4331,NA,Mexico,MX,Sinaloa,MX-SIN,SIN,Badiraguato,0,,,BAD,,,,50,2021-01-19T23:12:49+00:00
338197,MX-1454,small_airport,"Surutato Airstrip",25.79738,-107.554479,4692,NA,Mexico,MX,Sinaloa,MX-SIN,SIN,Badiraguato,0,,,SUR,,,,50,2020-12-28T19:55:09+00:00
338198,MX-1455,small_airport,"Santa Rita Airstrip",25.925705,-107.497509,2887,NA,Mexico,MX,Sinaloa,MX-SIN,SIN,Badiraguato,0,,,STK,,,,50,2020-12-28T20:10:16+00:00
348995,MX-1769,small_airport,"Las Flores Airport",26.04352,-107.438672,3740,NA,Mexico,MX,Sinaloa,MX-SIN,SIN,Badiraguato,0,,,LFX,,,,50,2021-10-20T16:05:23+00:00
349030,MX-1776,small_airport,"La Cienega del Ojito Airport",26.039202,-107.370537,3937,NA,Mexico,MX,Sinaloa,MX-SIN,SIN,Badiraguato,0,,,LGG,,,,50,2021-10-20T20:12:53+00:00
349195,MX-1806,small_airport,"Huixiopa Airstrip",25.757344,-107.185804,2920,NA,Mexico,MX,Sinaloa,MX-SIN,SIN,Badiraguato,0,,,XIP,,,,50,2021-10-26T21:27:24+00:00
349232,MX-1813,small_airport,"La Cienega Airstrip",25.776629,-107.423061,5423,NA,Mexico,MX,Sinaloa,MX-SIN,SIN,Badiraguato,0,,,CIM,,,,50,2021-10-27T17:37:41+00:00
349369,MX-1816,small_airport,"La Pitahayita Airport",25.68989,-107.37298,3304,NA,Mexico,MX,Sinaloa,MX-SIN,SIN,Badiraguato,0,,,,,,,50,2021-10-31T21:45:19+00:00
349378,MX-1818,small_airport,"Maturipa Airport",25.44777,-107.29931,1814,NA,Mexico,MX,Sinaloa,MX-SIN,SIN,Badiraguato,0,,,,,,,50,2021-11-01T12:03:47+00:00
349607,MX-1849,small_airport,"Picacho Airport",25.96663,-107.389072,2756,NA,Mexico,MX,Sinaloa,MX-SIN,SIN,Badiraguato,0,,,PKC,,,"San Javier",50,2022-03-17T18:34:47+00:00
349706,MX-1861,small_airport,"Rancho de Luna Airstrip",26.083189,-107.319056,4921,NA,Mexico,MX,Sinaloa,MX-SIN,SIN,Badiraguato,0,,,RDU,,,,50,2021-11-12T21:54:42+00:00
349997,MX-1877,small_airport,"Tameapa Airport",25.649322,-107.381347,3678,NA,Mexico,MX,Sinaloa,MX-SIN,SIN,Badiraguato,0,,,TAQ,,,,50,2021-11-28T14:16:21+00:00
349998,MX-1878,small_airport,"Tecuixiapa Airstrip",25.853054,-107.384566,1893,NA,Mexico,MX,Sinaloa,MX-SIN,SIN,Badiraguato,0,,,TCS,,,,50,2021-11-28T14:38:30+00:00
323402,MX-0426,small_airport,"Bajichic Airport",27.600945,-107.122756,,NA,Mexico,MX,Chihuahua,MX-CHH,CHH,Bajichic,0,,,,,,,50,2017-05-23T13:13:36+00:00
319376,MX-0208,small_airport,"Balancan Airstrip",17.875324,-91.5513,55,NA,Mexico,MX,Tabasco,MX-TAB,TAB,Balancan,0,,,PIB,,,,50,2016-07-07T22:56:56+00:00
348826,MX-1703,small_airport,"Ejido de Vergel Airport",26.48288,-106.38474,9055,NA,Mexico,MX,Chihuahua,MX-CHH,CHH,Balleza,0,,,,,,,50,2021-10-15T17:48:22+00:00
337321,MX-1300,small_airport,"Banámichi Airport",30.0157,-110.2072,2323,NA,Mexico,MX,Sonora,MX-SON,SON,Banámichi,0,,,,,,,50,2020-11-17T16:57:43+00:00
350007,MX-1883,small_airport,"Yoquivo Airport",27.014287,-107.535199,6791,NA,Mexico,MX,Coahuila,MX-COA,COA,Batopilas,0,,,YOQ,,,,50,2021-11-28T17:52:28+00:00
332941,MX-1133,small_airport,"San Ignacio 2 Airport",26.841456,-107.840139,1378,NA,Mexico,MX,Chihuahua,MX-CHH,CHH,Batopilas,0,,,IGB,,,,50,2020-01-04T16:22:45+00:00
339844,MX-1518,small_airport,"San Ignacio Airport",26.84708,-107.84547,,NA,Mexico,MX,Chihuahua,MX-CHH,CHH,Batopilas,0,,,,,,,50,2021-01-20T11:17:28+00:00
348977,MX-1759,small_airport,"Jesus Maria Airstrip",26.859136,-107.665179,3691,NA,Mexico,MX,Chihuahua,MX-CHH,CHH,Batopilas,0,,,JMC,,,,50,2021-10-20T07:28:27+00:00
349055,MX-1783,small_airport,"Mineral de Polanco Airport",26.84161,-107.636951,4878,NA,Mexico,MX,Chihuahua,MX-CHH,CHH,Batopilas,0,,,MDP,,,,50,2021-10-21T19:10:45+00:00
338025,MX-1384,small_airport,"San Pedro de La Cueva Airport",29.290357,-109.750983,1207,NA,Mexico,MX,Sonora,MX-SON,SON,Batuc,0,,,SQA,,,,50,2022-09-29T14:07:43+00:00
328840,MX-0773,small_airport,"Rancho Oaxaca Airport",30.727366,-109.057456,2953,NA,Mexico,MX,Sonora,MX-SON,SON,Bavispe,0,,,ROX,,,,50,2018-07-26T15:47:17+00:00
335374,MX-1220,small_airport,"Bavispe Airport",30.47439,-108.953305,3396,NA,Mexico,MX,Sonora,MX-SON,SON,Bavispe,0,,,BAV,,,,50,2022-03-02T17:25:05+00:00
335375,MX-1221,small_airport,"La Mora Airport",30.593272,-108.945562,3281,NA,Mexico,MX,Sonora,MX-SON,SON,Bavispe,0,,,LAM,,,,50,2020-08-03T17:04:27+00:00
323396,MX-0420,small_airport,"Bayosa Airstrip",24.770113,-106.77038,,NA,Mexico,MX,Durango,MX-DUR,DUR,Bayosa,0,,,,,,,50,2017-05-23T12:21:10+00:00
333516,MX-1164,small_airport,"Villa Juárez Airport",27.081861,-109.845,33,NA,Mexico,MX,Sonora,MX-SON,SON,"Benito Juárez",0,,,PIV,,,,50,2020-12-28T17:00:22+00:00
341384,MX-1576,small_airport,"La Julia Airport",30.17889,-111.06958,2616,NA,Mexico,MX,Sonora,MX-SON,SON,"Benjamín Hill",0,,,,,,,50,2022-08-07T16:41:57+00:00
328635,MX-0749,small_airport,"Sisoguichi Airport",27.775416,-107.491609,7349,NA,Mexico,MX,Chihuahua,MX-CHH,CHH,Bocoyna,0,,,SOG,,,,50,2018-07-04T08:52:08+00:00
328658,MX-0756,small_airport,"San Juanito Airport",27.979306,-107.595056,7874,NA,Mexico,MX,Chihuahua,MX-CHH,CHH,Bocoyna,0,,,JTO,,,,50,2018-07-04T22:55:29+00:00
349100,MX-1788,small_airport,"Divisadero Barrancas Airstrip",27.525237,-107.830403,6998,NA,Mexico,MX,Chihuahua,MX-CHH,CHH,Bocoyna,0,,,ADB,,,,50,2021-10-22T20:54:07+00:00
349711,MX-1863,small_airport,"Las Norias Airstrip",27.760286,-101.763367,3287,NA,Mexico,MX,Coahuila,MX-COA,COA,Buenaventura,0,,,RLQ,,,,50,2021-11-13T11:56:22+00:00
319704,MX-0268,small_airport,"And Port Airport",19.22791,-102.68606,1365,NA,Mexico,MX,Jalisco,MX-JAL,JAL,"Buenavista Tomatlán",0,,,ANP,,,,50,2019-11-01T11:55:48+00:00
319702,MX-0267,small_airport,"Pista Aérea Cadenas",19.205697,-102.617601,1500,NA,Mexico,MX,Michoacán,MX-MIC,MIC,"Buenavista Tomatlán",0,,,PAC,,,,50,2016-07-29T04:06:43+00:00
315234,MX-0053,small_airport,"Santa Fe Airport",30.6644,-112.2875,750,NA,Mexico,MX,Sonora,MX-SON,SON,Caborca,0,,,SFC,,,,50,2015-08-22T20:13:27+00:00
315818,MX-0071,small_airport,"Los Olivos Airstrip",30.5782,-112.9485,52,NA,Mexico,MX,Sonora,MX-SON,SON,Caborca,0,,,LOC,,,,50,2015-10-16T15:01:25+00:00
316087,MX-0074,small_airport,"Manjarrez de Caborca Airport",30.7009,-112.2293,870,NA,Mexico,MX,Sonora,MX-SON,SON,Caborca,0,,,MCB,,,MX16,50,2017-10-14T15:39:18+00:00
318882,MX-0153,small_airport,"La Rivera Airport",30.84809,-112.92075,139,NA,Mexico,MX,Sonora,MX-SON,SON,Caborca,0,,,YFA,,,,50,2016-06-18T07:56:52+00:00
319855,MX-0286,small_airport,"La Angostura Airport",30.8507,-112.814801,217,NA,Mexico,MX,Sonora,MX-SON,SON,Caborca,0,,,LTA,,,,50,2016-08-13T02:56:52+00:00
329088,MX-0821,small_airport,"Ejido Juan Álvarez Airport",31.168868,-112.805623,505,NA,Mexico,MX,Sonora,MX-SON,SON,Caborca,0,,,EJJ,,,,50,2021-10-20T10:10:10+00:00
329690,MX-0917,small_airport,"Bahía Airstrip",30.601936,-112.98109,66,NA,Mexico,MX,Sonora,MX-SON,SON,Caborca,0,,,BHA,,,,50,2018-11-18T17:23:18+00:00
336344,MX-1263,small_airport,"El Rocio Airport",30.851285,-112.417184,5512,NA,Mexico,MX,Sonora,MX-SON,SON,Caborca,0,,,ROO,,,,50,2020-10-02T23:04:14+00:00
336345,MX-1264,small_airport,"El Pedernal Airport",30.842592,-112.737144,269,NA,Mexico,MX,Sonora,MX-SON,SON,Caborca,0,,,PNA,,,,50,2020-10-02T23:10:35+00:00
338949,MX-1474,small_airport,"Juan García Cabral Airstrip",30.81833,-112.49668,,NA,Mexico,MX,Sonora,MX-SON,SON,Caborca,0,,,,,,,50,2021-01-09T12:50:17+00:00
338950,MX-1475,small_airport,"El Pinito Airstrip",30.73226,-112.33228,,NA,Mexico,MX,Sonora,MX-SON,SON,Caborca,0,,,,,,,50,2021-01-09T12:54:46+00:00
338951,MX-1476,small_airport,"Rafael Muñoz Espinoza Airstrip",30.72352,-112.20119,,NA,Mexico,MX,Sonora,MX-SON,SON,Caborca,0,,,,,,,50,2021-01-09T12:56:34+00:00
338954,MX-1479,small_airport,"Cuitaca Airstrip",30.99278,-110.48913,,NA,Mexico,MX,Sonora,MX-SON,SON,Caborca,0,,,,,,,50,2021-01-09T13:15:54+00:00
339265,MX-1495,small_airport,"Los Sapos Airstrip",30.790852,-112.430359,699,NA,Mexico,MX,Sonora,MX-SON,SON,Caborca,0,,,APU,,,,50,2021-01-12T10:52:58+00:00
352851,MX-1927,small_airport,"Alfa Estrella Airport",30.70349,-112.98299,66,NA,Mexico,MX,Sonora,MX-SON,SON,Caborca,0,,,,,,,50,2022-02-18T15:17:04+00:00
509051,MX-2063,small_airport,"Puerto Lobos Airport",30.27709,-112.8146,253,NA,Mexico,MX,Sonora,MX-SON,SON,Caborca,0,,,,,,,50,2023-05-24T15:45:33+00:00
349221,MX-1812,small_airport,"Cadereyta Airport",20.729606,-99.777929,6890,NA,Mexico,MX,Querétaro,MX-QUE,QUE,"Cadereyta de Montes",0,,,CDY,,,,50,2021-10-27T11:59:49+00:00
317962,MX-0133,small_airport,"Aerodeportes Airfield",25.522305,-100.079413,1292,NA,Mexico,MX,"Nuevo León",MX-NLE,NLE,"Cadereyta Jiménez",0,,,AED,,,,50,2021-10-13T16:54:13+00:00
321846,MX-0374,small_airport,"Sergio Perez de León Airport",25.505964,-100.083046,1299,NA,Mexico,MX,"Nuevo León",MX-NLE,NLE,"Cadereyta Jiménez",0,,,SPL,,,SPL,50,2021-10-13T13:44:29+00:00
331913,MX-1091,small_airport,"Club de Vuelo Cadereyta S.C.",25.432475,-99.934738,1083,NA,Mexico,MX,"Nuevo León",MX-NLE,NLE,"Cadereyta Jiménez",0,,,IER,,,,50,2021-10-13T16:54:56+00:00
315225,MX-0045,small_airport,"Club Aereo Del Yaqui Airport",27.447,-110.02,87,NA,Mexico,MX,Sonora,MX-SON,SON,Cajeme,0,,,ADY,,,,50,2015-08-22T14:03:33+00:00
321828,MX-0370,small_airport,"La Huerta Airport",27.455281,-110.019717,85,NA,Mexico,MX,Sonora,MX-SON,SON,Cajeme,0,,,JMS,,,"El Paraiso",50,2017-01-13T22:02:56+00:00
322557,MX-0386,small_airport,"San Isidro Labrador Airport",27.370417,-109.908056,138,NA,Mexico,MX,Sonora,MX-SON,SON,Cajeme,0,,,SIL,,,,50,2017-03-31T13:15:40+00:00
324243,MX-0513,small_airport,"Santa Cecilia Airport",27.369395,-109.938403,98,NA,Mexico,MX,Sonora,MX-SON,SON,Cajeme,0,,,SXA,,,"Capitan Arturo Olea",50,2023-05-24T14:14:28+00:00
324299,MX-0549,small_airport,"Santa Anita del Yaqui Airport",27.312946,-109.881604,138,NA,Mexico,MX,Sonora,MX-SON,SON,Cajeme,0,,,SNY,,,,50,2017-07-03T12:38:46+00:00
324300,MX-0550,small_airport,"Santa Barbara I Airport",27.476666,-109.979722,95,NA,Mexico,MX,Sonora,MX-SON,SON,Cajeme,0,,,STB,,,,50,2017-07-03T12:53:50+00:00
329697,MX-0924,small_airport,"Tigre Airport",27.405496,-109.963084,95,NA,Mexico,MX,Sonora,MX-SON,SON,Cajeme,0,,,TGS,,,,50,2018-11-18T19:55:34+00:00
329713,MX-0935,small_airport,"San Joaquin Aitport",27.352154,-109.965952,85,NA,Mexico,MX,Sonora,MX-SON,SON,Cajeme,0,,,SNQ,,,,50,2018-11-20T00:32:18+00:00
330244,MX-0978,small_airport,"Santa Patricia Airport",27.471326,-110.081912,72,NA,Mexico,MX,Sonora,MX-SON,SON,Cajeme,0,,,ONE,,,,50,2020-12-28T17:08:51+00:00
330744,MX-1022,small_airport,"Teras Airport",27.226051,-110.00111,42,NA,Mexico,MX,Sonora,MX-SON,SON,Cajeme,0,,,TRX,,,,50,2019-03-10T13:33:28+00:00
331752,MX-1080,small_airport,"Solidaridad Airport",27.391331,-110.01725,79,NA,Mexico,MX,Sonora,MX-SON,SON,Cajeme,0,,,SLD,,,,50,2019-07-27T11:07:23+00:00
331754,MX-1082,small_airport,"Pueblo Yaqui Airport",27.313179,-110.018683,66,NA,Mexico,MX,Sonora,MX-SON,SON,Cajeme,0,,,PBY,,,,50,2019-07-27T11:26:02+00:00
332944,MX-1136,small_airport,"Aeroservicios La Victoria Airport",27.405433,-109.959497,87,NA,Mexico,MX,Sonora,MX-SON,SON,Cajeme,0,,,ASV,,,,50,2020-01-04T17:00:55+00:00
338222,MX-1463,small_airport,"Nuestra Señora de Loreto Airport",27.405623,-109.953618,112,NA,Mexico,MX,Sonora,MX-SON,SON,Cajeme,0,,,NSL,,,,50,2020-12-29T00:04:05+00:00
350434,MX-1905,small_airport,"El Rodriguez Airport",28.239126,-109.994774,745,NA,Mexico,MX,Sonora,MX-SON,SON,Cajeme,0,,,ERZ,,,,50,2021-12-10T00:44:11+00:00
323936,MX-0483,small_airport,"Minera La Perla Airport",28.342132,-104.515177,4715,NA,Mexico,MX,Chihuahua,MX-CHH,CHH,Camargo,0,,,MLP,,,,50,2017-06-16T16:42:01+00:00
327797,MX-0681,small_airport,"El Cachorro Airport",27.524145,-105.34933,4340,NA,Mexico,MX,Chihuahua,MX-CHH,CHH,Camargo,0,,,CHO,,,,50,2018-05-11T18:06:46+00:00
319037,MX-0174,small_airport,"La Laguna Airport",19.80858,-90.138868,100,NA,Mexico,MX,Campeche,MX-CAM,CAM,Campeche,0,,,LLH,,,,50,2016-06-23T00:01:34+00:00
319551,MX-0244,small_airport,"Rancho Lanzarote Airport",19.671371,-99.322761,7878,NA,Mexico,MX,"México (state)",MX-MEX,MEX,"Cañada de Cisneros",0,,,RZT,,,,50,2021-10-12T17:35:57+00:00
29753,MMCA,small_airport,"Cananea National Airport",31.06615,-110.097878,4921,NA,Mexico,MX,Sonora,MX-SON,SON,Cananea,0,MMCA,CNA,CNA,,,,50,2018-10-21T21:01:58+00:00
330225,MX-0970,small_airport,"Santa Rosalia Airstrip",18.112634,-93.354523,548,NA,Mexico,MX,Tabasco,MX-TAB,TAB,Cananea,0,,,SRC,,,,50,2019-01-26T12:52:46+00:00
4865,MM11,small_airport,"El Durangueño Airport",24.418301,-104.886001,8202,NA,Mexico,MX,Durango,MX-DUR,DUR,Canatlan,0,,,DAG,,,"MM11, Rancho El Durangueno Airport",50,2017-07-02T14:59:45+00:00
319465,MX-0232,small_airport,"Aeródromo “Lorenzos”",21.111266,-86.836935,30,NA,Mexico,MX,"Quintana Roo",MX-ROO,ROO,Cancún,0,,,AGK,,,,50,2023-11-04T00:01:53+00:00
319466,MX-0233,small_airport,"Aeródromo “Viento y Sol”",21.104981,-86.835101,20,NA,Mexico,MX,"Quintana Roo",MX-ROO,ROO,Cancún,0,,,VYS,,,,50,2023-11-04T00:02:28+00:00
321806,MX-0355,small_airport,"Mesa de Cartujanos Airstrip",26.951026,-100.713416,2821,NA,Mexico,MX,Coahuila,MX-COA,COA,Candela,0,,,RMC,,,,50,2017-01-13T00:15:40+00:00
329191,MX-0850,small_airport,"El Mito Airstrip",26.621113,-100.98625,2743,NA,Mexico,MX,Coahuila,MX-COA,COA,Candela,0,,,ETO,,,,50,2018-09-03T21:19:42+00:00
353249,MX-1950,small_airport,"Candela Airport",26.8551,-100.67149,1424,NA,Mexico,MX,Coahuila,MX-COA,COA,Candela,0,,,,,,,50,2022-03-02T18:04:41+00:00
318937,MX-0165,small_airport,"Candelaria Airport",18.182725,-91.020082,175,NA,Mexico,MX,Campeche,MX-CAM,CAM,Candeleria,0,,,CRA,,,,50,2016-06-21T01:07:15+00:00
323392,MX-0416,small_airport,"Canelas Airstrip",25.128263,-106.552689,,NA,Mexico,MX,Durango,MX-DUR,DUR,Canelas,0,,,CAN,,,,50,2021-01-20T12:51:24+00:00
349589,MX-1844,small_airport,"Ojito de Camellones Airport",25.055055,-106.210939,7808,NA,Mexico,MX,Durango,MX-DUR,DUR,Canelas,0,,,OJC,,,,50,2021-11-09T11:13:27+00:00
319970,MX-0300,small_airport,"Rancho Grande Airport",29.8252,-111.2448,2400,NA,Mexico,MX,Sonora,MX-SON,SON,Carbo,0,,,RGE,http://www.ranchograndehunting.com/id2.html,,"Rancho Grande Hunting Lodge",50,2016-08-26T12:37:05+00:00
335019,MX-1213,small_airport,"La Guacamaya Airport",29.724284,-110.90385,1542,NA,Mexico,MX,Sonora,MX-SON,SON,Carbó,0,,,LGY,,,,50,2020-11-17T16:22:24+00:00
323401,MX-0425,small_airport,"Carichí Airstrip",27.917501,-107.043159,,NA,Mexico,MX,Chihuahua,MX-CHH,CHH,Carichí,0,,,,,,,50,2017-05-23T13:12:18+00:00
323406,MX-0429,small_airport,"Tecubichi Airstrip",27.678451,-106.842784,6890,NA,Mexico,MX,Chihuahua,MX-CHH,CHH,Carichi,0,,,TEB,,,,50,2017-05-23T23:23:53+00:00
329414,MX-0883,small_airport,"El Zopilote Airport",18.246933,-95.721035,29,NA,Mexico,MX,Veracruz,MX-VER,VER,"Carlos Carrillo",0,,,AZK,,,,50,2018-10-06T14:01:10+00:00
324254,MX-0524,small_airport,"Mesa Loma Prieta Airport",23.763178,-98.74587,1148,NA,Mexico,MX,Tamaulipas,MX-TAM,TAM,Casas,0,,,JMV,,,,50,2021-12-01T15:02:33+00:00
325198,MX-0584,small_airport,"Francisco Bruno Barrera Airport",26.083758,-99.599239,820,NA,Mexico,MX,"Nuevo León",MX-NLE,NLE,Cerralvo,0,,,FBB,,,,50,2017-10-14T14:00:16+00:00
325218,MX-0591,small_airport,"Chamela Airport",19.533333,-105.075278,51,NA,Mexico,MX,Jalisco,MX-JAL,JAL,Chamela,0,,,CHM,,,,50,2017-10-15T21:35:27+00:00
319039,MX-0176,small_airport,"La Joya Airport",19.473956,-90.663385,10,NA,Mexico,MX,Campeche,MX-CAM,CAM,Champoton,0,,,JYA,,,,50,2022-08-23T15:59:10+00:00
322829,MX-0403,small_airport,"San Jorge Airport",19.285793,-90.300021,59,NA,Mexico,MX,Campeche,MX-CAM,CAM,Champoton,0,,,SJQ,,,,50,2017-04-23T00:43:10+00:00
327989,MX-0700,small_airport,"Rancho Los Jabines Airport",19.099666,-90.335201,92,NA,Mexico,MX,Campeche,MX-CAM,CAM,Champoton,0,,,JAB,,,,50,2018-05-26T13:13:30+00:00
327994,MX-0703,small_airport,"Nayarit Airport",19.206778,-90.301428,52,NA,Mexico,MX,Campeche,MX-CAM,CAM,Champoton,0,,,NAY,,,,50,2018-05-26T13:36:30+00:00
319318,MX-0190,small_airport,"Paco Airport",20.308378,-103.159506,5019,NA,Mexico,MX,Jalisco,MX-JAL,JAL,Chapala,0,,,PAK,,,"Aeróclub Chapala",50,2016-07-03T16:19:51+00:00
337620,MX-1360,small_airport,"Charcas Airport",23.14738,-101.12137,,NA,Mexico,MX,"San Luis Potosí",MX-SLP,SLP,Charcas,0,,,,,,,50,2020-12-11T16:18:44+00:00
319849,MX-0282,small_airport,"Carneros Airport",29.510361,-106.12885,4600,NA,Mexico,MX,Chihuahua,MX-CHH,CHH,Chihuahua,0,,,ACF,,,,50,2016-08-12T15:44:52+00:00
326608,MX-0664,small_airport,"El Charco Airport",28.391899,-106.208992,5748,NA,Mexico,MX,Chihuahua,MX-CHH,CHH,Chihuahua,0,,,SCH,,,,50,2018-03-09T20:32:53+00:00
327987,MX-0698,small_airport,"Santa Ema Airport",28.72777,-105.98844,3944,NA,Mexico,MX,Chihuahua,MX-CHH,CHH,Chihuahua,0,,,EME,,,,50,2018-05-26T12:59:36+00:00
505493,MX-2014,small_airport,"Kilometro Setenta y Ocho Airport",29.25226,-106.38784,5221,NA,Mexico,MX,Chihuahua,MX-CHH,CHH,Chihuahua,0,,,,,,,50,2022-12-15T10:40:18+00:00
505494,MX-2015,small_airport,"La Campana Airport",29.26405,-106.35584,5081,NA,Mexico,MX,Chihuahua,MX-CHH,CHH,Chihuahua,0,,,,,,,50,2022-12-15T10:42:32+00:00
505495,MX-2016,small_airport,"El Navegante Airport",29.39254,-106.41359,5246,NA,Mexico,MX,Chihuahua,MX-CHH,CHH,Chihuahua,0,,,,,,,50,2022-12-15T10:50:07+00:00
323425,MX-0443,small_airport,"Chimaltitán Airstrip",21.787215,-103.774474,,NA,Mexico,MX,Jalisco,MX-JAL,JAL,Chimaltitán,0,,,,,,,50,2017-05-24T09:56:14+00:00
321646,MX-0329,small_airport,"La Pinta Airport",25.447861,-98.473083,151,NA,Mexico,MX,"Nuevo León",MX-NLE,NLE,China,0,,,PIT,,,,50,2016-12-30T11:44:03+00:00
329152,MX-0835,small_airport,"Vaquerias Airstrip",25.083333,-99,479,NA,Mexico,MX,"Nuevo León",MX-NLE,NLE,China,0,,,VQS,,,,50,2018-09-01T16:49:57+00:00
354976,MX-1968,small_airport,"San Juanito Airport",25.40549,-98.67124,371,NA,Mexico,MX,"Nuevo León",MX-NLE,NLE,China,0,,,,,,,50,2022-06-14T13:26:03+00:00
324255,MX-0525,small_airport,"El Duraznito Airstrip",27.538889,-108.681389,5023,NA,Mexico,MX,Chihuahua,MX-CHH,CHH,Chinipas,0,,,DZN,,,,50,2017-07-02T18:31:44+00:00
339241,MX-1488,small_airport,"Chinipas Airport",27.402976,-108.53856,1411,NA,Mexico,MX,Chihuahua,MX-CHH,CHH,Chinipas,0,,,CHS,,,,50,2021-01-11T22:25:59+00:00
326238,MX-0614,small_airport,"Mina de Palmarejo Airport",27.382432,-108.408217,3701,NA,Mexico,MX,Chihuahua,MX-CHH,CHH,"Chinipas de Almada",0,,,MPJ,,,,50,2018-01-26T10:58:26+00:00
319971,MX-0301,small_airport,"San Pantaleon Airstrip",26.6532,-108.094301,1510,NA,Mexico,MX,Sinaloa,MX-SIN,SIN,Choix,0,,,SPN,,,,50,2016-08-26T12:52:43+00:00
330737,MX-1017,small_airport,"Jose Angel  Espinoza Ferrusquilla Airport",26.719957,-108.332229,787,NA,Mexico,MX,Sinaloa,MX-SIN,SIN,Choix,0,,,FRR,,,CHX,50,2019-03-09T12:12:44+00:00
339296,MX-1499,small_airport,"El Encino Airstrip",26.597401,-108.086189,1893,NA,Mexico,MX,Sinaloa,MX-SIN,SIN,Choix,0,,,EEC,,,,50,2021-01-12T12:01:24+00:00
339846,MX-1520,small_airport,"Bacayopa Airstrip",26.452554,-108.102969,,NA,Mexico,MX,Sinaloa,MX-SIN,SIN,Choix,0,,,BCY,,,,50,2021-10-26T13:18:38+00:00
319319,MX-0191,small_airport,"Barra de Navidad Airport",19.219431,-104.661502,55,NA,Mexico,MX,Jalisco,MX-JAL,JAL,Cihuatlan,0,,,BND,,,,50,2016-07-03T18:30:23+00:00
336384,MX-1280,small_airport,"El Baculo Airport",29.255486,-102.12764,3478,NA,Mexico,MX,Coahuila,MX-COA,COA,"Ciudad Acuña",0,,,BCL,,,,50,2020-10-05T16:45:36+00:00
337424,MX-1327,small_airport,"Aguachile Airstrip",29.210977,-102.573906,3937,NA,Mexico,MX,Coahuila,MX-COA,COA,"Ciudad Acuña",0,,,RGH,,,,50,2020-11-22T13:06:23+00:00
338143,MX-1429,small_airport,"El Cedrito Airstrip",29.215833,-101.888333,3091,NA,Mexico,MX,Coahuila,MX-COA,COA,"Ciudad Acuña",0,,,ECE,,,,50,2020-12-28T15:30:16+00:00
339501,MX-1501,small_airport,"Rancho San José Airstrip",29.64661,-102.33542,2447,NA,Mexico,MX,Coahuila,MX-COA,COA,"Ciudad Acuña",0,,,,,,,50,2021-11-11T10:43:25+00:00
345735,MX-1635,small_airport,"La Pistola Airport",29.63504,-101.40575,1394,NA,Mexico,MX,Coahuila,MX-COA,COA,"Ciudad Acuña",0,,,,,,,50,2021-06-24T17:43:36+00:00
347990,MX-1645,closed,"La Linda Airport",29.441373,-102.816432,1732,NA,Mexico,MX,Coahuila,MX-COA,COA,"Ciudad Acuña",0,,,,,,,50,2023-10-27T12:28:03+00:00
347994,MX-1648,small_airport,"Rancho Santa María Airport",29.55711,-101.91514,2008,NA,Mexico,MX,Coahuila,MX-COA,COA,"Ciudad Acuña",0,,,,,,,50,2021-09-29T11:10:48+00:00
347995,MX-1649,small_airport,"Rancho El Salado West Airport",29.65201,-101.78009,1675,NA,Mexico,MX,Coahuila,MX-COA,COA,"Ciudad Acuña",0,,,,,,,50,2021-09-29T11:12:06+00:00
347996,MX-1650,small_airport,"Rancho Los Albertos Airport",29.58424,-101.64497,1814,NA,Mexico,MX,Coahuila,MX-COA,COA,"Ciudad Acuña",0,,,,,,,50,2021-09-29T11:13:08+00:00
348396,MX-1663,small_airport,"Santa Margarita Airport",29.47418,-101.50274,1568,NA,Mexico,MX,Coahuila,MX-COA,COA,"Ciudad Acuña",0,,,,,,,50,2021-10-06T17:54:29+00:00
348397,MX-1664,small_airport,"El Rey Airport",29.53661,-101.44093,1342,NA,Mexico,MX,Coahuila,MX-COA,COA,"Ciudad Acuña",0,,,,,,,50,2021-10-06T17:55:45+00:00
348887,MX-1714,small_airport,"Santa Teresa Airport",29.36086,-101.90683,2460,NA,Mexico,MX,Coahuila,MX-COA,COA,"Ciudad Acuña",0,,,,,,,50,2021-10-18T17:08:12+00:00
348890,MX-1717,small_airport,"El Reseco Airport",29.24914,-101.42438,1735,NA,Mexico,MX,Coahuila,MX-COA,COA,"Ciudad Acuña",0,,,,,,,50,2021-10-18T17:21:50+00:00
349631,MX-1855,small_airport,"La Reforma Airport",29.69011,-101.88124,1893,NA,Mexico,MX,Coahuila,MX-COA,COA,"Ciudad Acuña",0,,,,,,,50,2021-11-11T11:04:56+00:00
350064,MX-1893,small_airport,"La Herradura Airport",29.7253,-101.6886,1368,NA,Mexico,MX,Coahuila,MX-COA,COA,"Ciudad Acuña",0,,,,,,,50,2021-11-30T14:30:42+00:00
29787,MX-0003,closed,"Ciudad Acuña Old Airport",29.331699,-100.981003,971,NA,Mexico,MX,Coahuila,MX-COA,COA,"Ciudad Acuña",0,,,,,,,50,2021-01-07T15:04:28+00:00
43060,MMCC,small_airport,"Ciudad Acuña New International Airport",29.333662,-101.100555,1410,NA,Mexico,MX,Coahuila,MX-COA,COA,"Ciudad Acuña",0,MMCC,ACN,EFN,,https://en.wikipedia.org/wiki/Ciudad_Acu%C3%B1a_International_Airport,,50,2021-10-06T17:49:30+00:00
317960,MX-0131,small_airport,"Santa Elena Airstrip",29.6391,-101.8959,1845,NA,Mexico,MX,Coahuila,MX-COA,COA,"Ciudad Acuña",0,,,STX,,,,50,2016-05-19T18:42:07+00:00
321176,MX-0326,small_airport,"Rancho Loma Blanca Airport",29.70041,-102.137158,1476,NA,Mexico,MX,Coahuila,MX-COA,COA,"Ciudad Acuña",0,,,RLW,,,,50,2016-11-13T13:43:18+00:00
321651,MX-0334,small_airport,"San Lorenzo Acuña Airport",29.308333,-101.090278,1168,NA,Mexico,MX,Coahuila,MX-COA,COA,"Ciudad Acuña",0,,,LOR,,,,50,2021-10-06T17:49:58+00:00
321652,MX-0335,small_airport,"El Seco Airport",29.414349,-101.397725,1312,NA,Mexico,MX,Coahuila,MX-COA,COA,"Ciudad Acuña",0,,,ESE,,,,50,2016-12-30T13:53:34+00:00
324210,MX-0487,small_airport,"Los Ángeles Airport",29.500556,-101.667571,1772,NA,Mexico,MX,Coahuila,MX-COA,COA,"Ciudad Acuña",0,,,LAN,,,,50,2021-10-18T16:18:59+00:00
324214,MX-0490,small_airport,"Los Pecos Airstrip",29.654077,-101.466669,1362,NA,Mexico,MX,Coahuila,MX-COA,COA,"Ciudad Acuña",0,,,RPB,,,,50,2017-07-02T11:19:36+00:00
324221,MX-0496,small_airport,"Trampa Santa Rosa Airport",29.636925,-101.469959,1345,NA,Mexico,MX,Coahuila,MX-COA,COA,"Ciudad Acuña",0,,,TRS,,,,50,2017-07-02T12:17:01+00:00
324250,MX-0520,small_airport,"El Bonito Airport",29.018056,-102.014444,4265,NA,Mexico,MX,Coahuila,MX-COA,COA,"Ciudad Acuña",0,,,EBO,,,,50,2021-11-11T11:16:46+00:00
324304,MX-0554,small_airport,"Rancho El Salado Airstrip",29.639167,-101.759166,1565,NA,Mexico,MX,Coahuila,MX-COA,COA,"Ciudad Acuña",0,,,RSX,,,,50,2021-09-29T11:04:26+00:00
325174,MX-0562,small_airport,"Rancho La Margarita Airport",29.224167,-101.243611,1394,NA,Mexico,MX,Coahuila,MX-COA,COA,"Ciudad Acuña",0,,,LMT,,,,50,2017-10-13T22:39:21+00:00
321810,MX-0359,small_airport,"Los Gloriosos Airport",27.093586,-99.982531,787,NA,Mexico,MX,"Nuevo León",MX-NLE,NLE,"Ciudad Anahuac",0,,,LGI,,,,50,2017-01-13T00:50:48+00:00
333844,MX-1180,small_airport,"Hacienda Tulapan Airport",25.272912,-99.990606,1450,NA,Mexico,MX,"Nuevo León",MX-NLE,NLE,"Ciudad de Allende",0,,,RJV,,,,50,2021-10-13T16:50:38+00:00
348654,MX-1675,small_airport,"El Guajuco Airport",25.32507,-99.95776,1319,NA,Mexico,MX,"Nuevo León",MX-NLE,NLE,"Ciudad de Allende",0,,,,,,,50,2021-10-12T11:34:56+00:00
348741,MX-1693,small_airport,"Charming Campestre Airport",25.32728,-100.00957,1604,NA,Mexico,MX,"Nuevo León",MX-NLE,NLE,"Ciudad de Allende",0,,,,,,,50,2021-10-13T16:44:53+00:00
505575,MX-2026,small_airport,"Aeropuerto Nacional Militar de Mérida (Base Nº8 de la Fuerza Aérea Mexicana)",20.93629,-89.647161,,NA,Mexico,MX,Yucatán,MX-YUC,YUC,"Ciudad de Mérida",0,,,,https://www.gob.mx/sedena/documentos/fuerza-aerea-mexicana,https://es.m.wikipedia.org/wiki/Fuerza_Aérea_Mexicana,,50,2023-11-01T15:44:54+00:00
505576,MX-2027,small_airport,"Aeropuerto Nacional Militar de Ciudad de México (Base Nº19 de la Fuerza Aérea Mexicana)",19.423767,-99.076102,,NA,Mexico,MX,"Ciudad de México",MX-DIF,DIF,"Ciudad de México",0,,,,https://www.gob.mx/sedena/documentos/fuerza-aerea-mexicana,https://es.m.wikipedia.org/wiki/Fuerza_Aérea_Mexicana,,50,2023-11-06T14:56:06+00:00
319120,MX-0183,small_airport,"Los Bravos De Bonfil Airport",17.98953,-91.68843,25,NA,Mexico,MX,Campeche,MX-CAM,CAM,"Ciudad Del Carmen",0,,,LBB,,,,50,2016-06-25T00:29:33+00:00
324219,MX-0494,small_airport,"Venecia Airport",26.202206,-98.558212,131,NA,Mexico,MX,Tamaulipas,MX-TAM,TAM,"Ciudad Díaz Ordaz",0,,,VEA,,,,50,2020-09-28T11:23:22+00:00
323929,MX-0476,small_airport,"General Roberto Fierro Airport",28.568056,-107.467221,6798,NA,Mexico,MX,Chihuahua,MX-CHH,CHH,"Ciudad Guerrero",0,,,CDG,,,,50,2020-11-17T19:09:11+00:00
317111,MX-0117,small_airport,"Rancho Madero Airport",27.3805,-104.88,4305,NA,Mexico,MX,Chihuahua,MX-CHH,CHH,"Ciudad Jimenez",0,,,RMF,,,,50,2016-02-25T23:25:12+00:00
321121,MX-0308,small_airport,"Los Novillos Airport",27.516134,-104.15789,4701,NA,Mexico,MX,Chihuahua,MX-CHH,CHH,"Ciudad Jimenez",0,,,NOV,,,,50,2016-11-10T19:27:45+00:00
330934,MX-1027,small_airport,"El Pelon Airport",27.218032,-104.841307,4400,NA,Mexico,MX,Chihuahua,MX-CHH,CHH,"Ciudad Juarez",0,,,ELP,,,,50,2019-04-06T11:04:00+00:00
4870,MM16,small_airport,"General Jesús Agustín Castro Airport",25.526501,-103.517997,3720,NA,Mexico,MX,Durango,MX-DUR,DUR,"Ciudad Lerdo",0,MM16,,LDD,,,,50,2017-10-14T12:07:47+00:00
338028,MX-1387,small_airport,"Calaveras Airport",25.54429,-103.54773,3734,NA,Mexico,MX,Durango,MX-DUR,DUR,"Ciudad Lerdo",0,,,CVE,,,,50,2020-12-22T23:43:28+00:00
337476,MX-1356,small_airport,"Aeródromo Huapoca",29.140786,-108.297665,4800,NA,Mexico,MX,Chihuahua,MX-CHH,CHH,"Ciudad Madera",0,,,POK,,,,50,2023-11-06T12:57:05+00:00
29788,MMDM,small_airport,"Ciudad Mante National Airport",22.743177,-99.017372,341,NA,Mexico,MX,Tamaulipas,MX-TAM,TAM,"Ciudad Mante",0,MMDM,MMC,CDM,,https://en.wikipedia.org/wiki/Ciudad_Mante_National_Airport,"Cuauhtemoc Airport, Aeropuerto Nacional Las Huastecas",50,2017-10-22T23:12:25+00:00
315230,MX-0050,small_airport,"Los Aztecas Airport",22.5141,-98.6325,110,NA,Mexico,MX,Tamaulipas,MX-TAM,TAM,"Ciudad Mante",0,,,AZT,,,,50,2015-08-22T16:12:18+00:00
324233,MX-0508,small_airport,"El Palmar Ranch Airstrip",22.797147,-99.140886,394,NA,Mexico,MX,Tamaulipas,MX-TAM,TAM,"Ciudad Mante",0,,,PLR,,,,50,2017-07-02T13:55:57+00:00
328665,MX-0762,small_airport,"Rancho El Trofis Airport",22.455043,-98.763331,295,NA,Mexico,MX,Tamaulipas,MX-TAM,TAM,"Ciudad Mante",0,,,RTF,,,,50,2018-07-05T01:13:51+00:00
331651,MX-1072,small_airport,"El Siete Airport",22.601557,-98.914564,325,NA,Mexico,MX,Tamaulipas,MX-TAM,TAM,"Ciudad Mante",0,,,STE,,,,50,2019-07-13T10:28:46+00:00
331653,MX-1074,small_airport,"Rancho Los Pinos Airport",22.755741,-98.829013,197,NA,Mexico,MX,Tamaulipas,MX-TAM,TAM,"Ciudad Mante",0,,,RPU,,,,50,2019-07-13T10:58:27+00:00
337414,MX-1317,small_airport,"Cuatro Caminos Airport",22.51442,-98.835057,328,NA,Mexico,MX,Tamaulipas,MX-TAM,TAM,"Ciudad Mante",0,,,CCM,,,,50,2020-11-22T09:14:45+00:00
338024,MX-1383,small_airport,"Los Aztecas I Airstrip",22.502982,-98.597821,79,NA,Mexico,MX,Tamaulipas,MX-TAM,TAM,"Ciudad Mante",0,,,LZS,,,,50,2020-12-22T22:37:25+00:00
4886,MM38,closed,"Aeródromo de la Presa Falcón",26.521713,-99.148382,150,NA,Mexico,MX,Tamaulipas,MX-TAM,TAM,"Ciudad Mier",0,,,,,,MM38,50,2022-12-18T15:57:53+00:00
336218,MX-1255,small_airport,"Rancho El Mezquitito Airfield / Miguel Alemán Aerodrome",26.34138,-99.01626,,NA,Mexico,MX,Tamaulipas,MX-TAM,TAM,"Ciudad Miguel Alemán",0,,,,,,,50,2021-04-01T12:27:55+00:00
329413,MX-0882,small_airport,"Familia Baldenebro Jaimes Airport",27.374776,-109.937428,119,NA,Mexico,MX,Sonora,MX-SON,SON,"Ciudad Obregon",0,,,FBJ,,,,50,2018-10-06T13:52:11+00:00
508890,MX-2029,small_airport,"Ciudad Tula Airport",22.96638,-99.77224,3665,NA,Mexico,MX,Tamaulipas,MX-TAM,TAM,"Ciudad Tula",0,,,,,,,50,2023-05-20T09:15:41+00:00
4878,MM27,closed,"Cementos Mexicanos Airport",21.983999,-98.961899,302,NA,Mexico,MX,"San Luis Potosí",MX-SLP,SLP,"Ciudad Valles",0,,,,,,"MX26, MM27, CMX",50,2016-03-26T01:33:23+00:00
317357,MX-0124,small_airport,"Chantol Airstrip",22.0943,-99.0963,444,NA,Mexico,MX,"San Luis Potosí",MX-SLP,SLP,"Ciudad Valles",0,,,CTK,,,,50,2016-03-26T01:56:30+00:00
317358,MX-0125,small_airport,"Covadonga Airport",21.9117,-98.9564,180,NA,Mexico,MX,"San Luis Potosí",MX-SLP,SLP,"Ciudad Valles",0,,,CVD,,,,50,2016-03-26T02:22:02+00:00
329558,MX-0904,small_airport,"San Vicente Airport",18.715536,-103.655154,66,NA,Mexico,MX,Michoacán,MX-MIC,MIC,Coahuayana,0,,,SVL,,,,50,2018-10-27T09:31:18+00:00
336388,MX-1281,small_airport,"Pablo L. Sidar Airport",18.772466,-103.174528,3346,NA,Mexico,MX,Michoacán,MX-MIC,MIC,Coalcoman,0,,,CLM,,,,50,2020-10-05T17:10:56+00:00
319311,MX-0187,small_airport,"Insurgente Marcos Escobedo Airport",21.99162,-103.282928,5709,NA,Mexico,MX,Jalisco,MX-JAL,JAL,Colotlán,0,,,COT,,,"MM33, MM0Z",50,2016-07-03T15:05:20+00:00
317354,MX-0121,small_airport,"La Joya Brun Airstrip",19.4444,-103.6713,4790,NA,Mexico,MX,Colima,MX-COL,COL,Comala,0,,,JYB,,,,50,2016-03-26T00:49:06+00:00
317355,MX-0122,small_airport,"El Jabali Airport",19.448475,-103.683921,4575,NA,Mexico,MX,Colima,MX-COL,COL,Comala,0,,,UJI,,,,50,2016-03-26T00:52:38+00:00
29796,MMCO,small_airport,"San Antonio Copalar Airport",16.176701,-92.050598,5161,NA,Mexico,MX,Chiapas,MX-CHP,CHP,Comitán,0,MMCO,CJT,,,,,50,2017-10-21T22:54:20+00:00
316363,MX-0084,small_airport,"Miguel Aleman Airport",16.2178,-92.1115,5287,NA,Mexico,MX,Chiapas,MX-CHP,CHP,Comitán,0,,,MAX,,,,50,2015-11-15T20:45:43+00:00
327980,MX-0691,small_airport,"Comitan Airport",16.267719,-92.081566,5364,NA,Mexico,MX,Chiapas,MX-CHP,CHP,Comitán,0,,,COM,,,,50,2018-05-26T11:34:13+00:00
343219,MX-1613,small_airport,"Cañon Agricultural Airstrip",25.28555,-111.7854,103,NA,Mexico,MX,"Baja California",MX-BCN,BCN,Comondú,0,,,,,,,50,2021-04-18T21:41:24+00:00
308378,MX-0017,small_airport,"Cadejé Airstrip",26.370833,-112.513611,237,NA,Mexico,MX,"Baja California Sur",MX-BCS,BCS,Comondú,0,,,CDJ,,https://en.wikipedia.org/wiki/Cadej%C3%A9_Airstrip,,50,2015-08-23T17:46:13+00:00
308394,MX-0025,small_airport,"Río de Agua de Vida Airstrip",26.1775,-112.114167,338,NA,Mexico,MX,"Baja California Sur",MX-BCS,BCS,Comondú,0,,,,,https://en.wikipedia.org/wiki/R%C3%ADo_de_Agua_de_Vida_Airstrip,,50,2021-10-12T16:50:54+00:00
308395,MX-0026,small_airport,"Palo Blanco Airstrip",26.148333,-112.106667,819,NA,Mexico,MX,"Baja California Sur",MX-BCS,BCS,Comondú,0,,,ENW,,https://en.wikipedia.org/wiki/Palo_Blanco_Airstrip,,50,2020-12-28T12:55:42+00:00
308398,MX-0029,small_airport,"Puerto Cortés Airstrip",24.475,-111.8258,6,NA,Mexico,MX,"Baja California Sur",MX-BCS,BCS,Comondú,0,,,,,https://en.wikipedia.org/wiki/Puerto_Cort%C3%A9s_Airstrip,,50,2020-12-28T13:09:39+00:00
325259,MX-0595,small_airport,"Ayuquila Airport",25.223621,-111.759541,62,NA,Mexico,MX,"Baja California Sur",MX-BCS,BCS,Comondú,0,,,AYL,,,,50,2017-10-22T14:03:43+00:00
338109,MX-1397,small_airport,"La Vinatería Airstrip",26.18256,-112.11005,,NA,Mexico,MX,"Baja California Sur",MX-BCS,BCS,Comondú,0,,,,,,,50,2021-10-12T16:51:02+00:00
338110,MX-1398,small_airport,"Las Barrancas Airstrip",25.99302,-112.19211,,NA,Mexico,MX,"Baja California Sur",MX-BCS,BCS,Comondú,0,,,,,,,50,2020-12-28T13:00:16+00:00
338122,MX-1410,small_airport,"Ton Airstrip",25.455985,-111.891761,89,NA,Mexico,MX,"Baja California Sur",MX-BCS,BCS,Comondú,0,,,PAW,,,"Pista Aérea Ton",50,2021-03-05T11:11:05+00:00
324266,MX-0536,small_airport,"Las Varas Airport",21.189617,-105.149591,56,NA,Mexico,MX,Nayarit,MX-NAY,NAY,Compostela,0,,,VAS,,,,50,2017-07-02T21:12:24+00:00
339898,MX-1540,small_airport,"Aeródromo ""San Marcos del Tapado""",24.6117,-101.3628,6096,NA,Mexico,MX,Zacatecas,MX-ZAC,ZAC,"Concepción del Oro",0,,,,,,,50,2023-11-06T12:26:09+00:00
331489,MX-0273,small_airport,"Cucuyulapa Airport",17.981889,-93.242028,69,NA,Mexico,MX,Tabasco,MX-TAB,TAB,Conduacan,0,,,ACU,,,,50,2019-06-22T19:21:50+00:00
4872,MM20,small_airport,"Ingeniero Juan Antonio Perdomo Diaz Airport",18.874201,-96.958199,2960,NA,Mexico,MX,Veracruz,MX-VER,VER,Cordoba,0,MM20,,CRV,,https://es.wikipedia.org/wiki/Aeropuerto_Nacional_Ingeniero_Juan_Antonio_Perdomo_D%C3%ADaz,"Cordaba Airport, MX29",50,2017-10-14T15:55:04+00:00
4895,MM50,small_airport,"Cosalá Airport",24.420098,-106.698923,1289,NA,Mexico,MX,Sinaloa,MX-SIN,SIN,Cosalá,0,MM50,,CZP,,,MM50,50,2021-10-12T17:16:52+00:00
325219,MX-0592,small_airport,"General Miguel Alemán Airport",18.209182,-96.091368,66,NA,Mexico,MX,Veracruz,MX-VER,VER,Cosamaloapan,0,,,AMV,,https://es.wikipedia.org/wiki/Aer%C3%B3dromo_General_Miguel_Alem%C3%A1n,MX22,50,2017-10-15T22:34:25+00:00
338029,MX-1388,small_airport,"La Esmeralda Airstrip",18.294771,-96.028136,115,NA,Mexico,MX,Veracruz,MX-VER,VER,Cosamaloapan,0,,,LED,,,,50,2020-12-22T23:51:48+00:00
323934,MX-0481,small_airport,"Rancho Santa Anita Airport",29.673203,-105.280751,3901,NA,Mexico,MX,Chihuahua,MX-CHH,CHH,"Coyame del Sotol",0,,,RTA,,,,50,2021-01-20T15:29:38+00:00
328660,MX-0757,small_airport,"La Guarida Airport",29.702426,-105.088574,46,NA,Mexico,MX,Chihuahua,MX-CHH,CHH,"Coyame del Sotol",0,,,GUA,,,,50,2018-07-04T23:49:50+00:00
329154,MX-0837,small_airport,"El Sacrificio Airstrip",29.694401,-105.817049,4304,NA,Mexico,MX,Chihuahua,MX-CHH,CHH,"Coyame del Sotol",0,,,SCF,,,,50,2021-01-20T15:29:50+00:00
339884,MX-1534,small_airport,"Santiago de Coyame Airport",29.44905,-105.09458,,NA,Mexico,MX,Chihuahua,MX-CHH,CHH,"Coyame del Sotol",0,,,,,,,50,2021-01-20T15:36:16+00:00
509038,MX-2053,small_airport,"Tinaja Verde Airport",29.87258,-105.11949,4816,NA,Mexico,MX,Chihuahua,MX-CHH,CHH,"Coyame del Sotol",0,,,,,,,50,2023-05-24T12:32:36+00:00
509040,MX-2055,small_airport,"Las Garzas Number 2 Airport",29.41578,-104.89229,3036,NA,Mexico,MX,Chihuahua,MX-CHH,CHH,"Coyame del Sotol",0,,,,,,,50,2023-05-24T12:34:49+00:00
337623,MX-1363,small_airport,"Juan Murillo Airport",23.950528,-106.927335,43,NA,Mexico,MX,Sinaloa,MX-SIN,SIN,"Cruz de Elota",0,,,JMR,,,,50,2020-12-12T10:57:43+00:00
337625,MX-1365,small_airport,"Leon's Airstrip",23.980783,-106.949587,66,NA,Mexico,MX,Sinaloa,MX-SIN,SIN,"Cruz de Elota",0,,,LEO,,,,50,2020-12-12T11:40:48+00:00
331757,MX-1085,heliport,"Helipuerto del Sindicato Nacional de Los Trabajadores de La Educación",19.34696,-99.281555,8553,NA,Mexico,MX,"Ciudad de México",MX-DIF,DIF,Cuajimalpa,0,,,HSN,,,,50,2023-11-06T12:57:48+00:00
328850,MX-0783,small_airport,"La Palmosa Airstrip",26.395244,-101.786209,4003,NA,Mexico,MX,Coahuila,MX-COA,COA,"Cuatro Cienegas",0,,,LPO,,,,50,2018-07-26T18:42:06+00:00
330780,MX-1025,small_airport,"Valle del Rosario Airport",26.335639,-101.545,4180,NA,Mexico,MX,Coahuila,MX-COA,COA,"Cuatro Cienegas",0,,,VRO,,,,50,2019-03-17T11:39:45+00:00
319967,MX-0297,small_airport,"El Toro Airport",26.262677,-102.122664,5030,NA,Mexico,MX,Coahuila,MX-COA,COA,"Cuatro Cienegas",0,,,ELT,,,,50,2016-08-26T11:43:22+00:00
4906,MM64,small_airport,"Constitucionalista Airport",26.9904,-102.032997,2450,NA,Mexico,MX,Coahuila,MX-COA,COA,"Cuatro Cienegas de Carranza",0,MM64,,CUC,,,"Cuatro Cienegas New Airport",50,2018-10-27T11:24:26+00:00
319790,MX-0274,small_airport,"Aero Club Manitoba Airport",28.6558,-106.9005,6545,NA,Mexico,MX,Chihuahua,MX-CHH,CHH,Cuauhtémoc,0,,,AMT,,,,50,2016-08-04T18:54:13+00:00
325173,MX-0561,small_airport,"Campo 107 Airport",28.798056,-107.0475,6598,NA,Mexico,MX,Chihuahua,MX-CHH,CHH,Cuauhtémoc,0,,,CPI,,,,50,2020-11-17T19:08:26+00:00
325191,MX-0577,small_airport,"Campo Diez Airport",28.738889,-106.928333,6499,NA,Mexico,MX,Chihuahua,MX-CHH,CHH,Cuauhtémoc,0,,,CDI,,,,50,2020-11-17T19:08:17+00:00
327796,MX-0680,small_airport,"Bodegas Generales del Campo Airport",28.775415,-107.087487,6637,NA,Mexico,MX,Chihuahua,MX-CHH,CHH,Cuauhtémoc,0,,,BGC,,,,50,2020-11-17T19:08:39+00:00
330120,MX-0944,small_airport,"Elevate Airport",19.310365,-103.642049,2575,NA,Mexico,MX,Colima,MX-COL,COL,Cuauhtemoc,0,,,ELE,,,,50,2019-01-17T14:20:52+00:00
319320,MX-0192,small_airport,"Cuautla Airport",20.191474,-104.413804,5845,NA,Mexico,MX,Jalisco,MX-JAL,JAL,Cuautla,0,,,CUJ,,,,50,2016-07-03T19:04:54+00:00
349750,MX-1868,small_airport,"Santo Domingo Airstrip",30.4636,-110.534775,3560,NA,Mexico,MX,Sonora,MX-SON,SON,Cucurpe,0,,,SGU,,,,50,2021-11-16T10:59:29+00:00
316085,MX-0072,small_airport,"Aerofumigaciones Maranatu Airport",24.4776,-107.4082,38,NA,Mexico,MX,Sinaloa,MX-SIN,SIN,Culiacan,0,,,AFM,,,,50,2015-10-29T23:55:59+00:00
322554,MX-0383,small_airport,"La Noria Airport",24.90499,-107.281708,315,NA,Mexico,MX,Sinaloa,MX-SIN,SIN,Culiacán,0,,,NOA,,,,50,2021-11-01T13:06:21+00:00
324277,MX-0539,small_airport,"Morris Airport",24.608317,-107.449834,33,NA,Mexico,MX,Sinaloa,MX-SIN,SIN,Culiacan,0,,,MRI,,,,50,2017-07-03T00:11:04+00:00
324279,MX-0540,small_airport,"Campo La Primavera Airport",24.714586,-107.415919,115,NA,Mexico,MX,Sinaloa,MX-SIN,SIN,Culiacan,0,,,CPV,,,,50,2017-07-03T00:20:26+00:00
324297,MX-0547,small_airport,"Las Salvias Airstrip",25.664613,-107.499709,2943,NA,Mexico,MX,Sinaloa,MX-SIN,SIN,Culiacán,0,,,SAL,,,,50,2021-01-19T23:16:41+00:00
325190,MX-0576,small_airport,"San Rafael Airport",24.66745,-107.401428,148,NA,Mexico,MX,Sinaloa,MX-SIN,SIN,Culiacan,0,,,SRY,,,,50,2017-10-14T10:51:52+00:00
327198,MX-0673,small_airport,"Herradura de La Villita Airport",24.813283,-107.278964,243,NA,Mexico,MX,Sinaloa,MX-SIN,SIN,Culiacan,0,,,LVA,,,,50,2018-04-18T23:58:52+00:00
327569,MX-0674,small_airport,"La Campanera Airport",24.94838,-107.469321,344,NA,Mexico,MX,Sinaloa,MX-SIN,SIN,Culiacan,0,,,SBL,,,,50,2018-05-04T01:53:16+00:00
327973,MX-0684,small_airport,"Carboneras Airstrip",24.767389,-107.232539,43,NA,Mexico,MX,Sinaloa,MX-SIN,SIN,Culiacan,0,,,BCB,,,,50,2018-05-26T10:30:13+00:00
327977,MX-0688,small_airport,"Carbonera Airport",24.762537,-107.214607,400,NA,Mexico,MX,Sinaloa,MX-SIN,SIN,Culiacan,0,,,CAR,,,,50,2018-05-26T11:09:15+00:00
327981,MX-0692,small_airport,"Mi Ranchito Airport",24.887225,-107.646183,89,NA,Mexico,MX,Sinaloa,MX-SIN,SIN,Culiacan,0,,,MRT,,,,50,2018-05-26T11:39:50+00:00
328282,MX-0734,small_airport,"El Pozo Airport",24.921469,-107.256425,95,NA,Mexico,MX,Sinaloa,MX-SIN,SIN,Culiacán,0,,,PZO,,,,50,2021-11-01T12:55:45+00:00
328861,MX-0794,small_airport,"Cacaraguas Airport",24.892034,-107.584271,151,NA,Mexico,MX,Sinaloa,MX-SIN,SIN,Culiacan,0,,,CGU,,,,50,2018-07-26T21:07:53+00:00
